[{
    "name": "Los Castores, Cochabamba",
    "coords": {
        "lat": -17.3763153,
        "lng": -66.1512552
    }
}, {
    "name": "LIBRERIA UYUNI, Cochabamba",
    "coords": {
        "lat": -17.3915257,
        "lng": -66.1580452
    }
}, {
    "name": "Mercado Campesino Cbba., Huanchaca, Cochabamba",
    "coords": {
        "lat": -17.4320776,
        "lng": -66.1259345
    }
}, {
    "name": "Prado Cochabamba, Cochabamba",
    "coords": {
        "lat": -17.3868192,
        "lng": -66.156514
    }
}, {
    "name": "Salteñeria Los Castores, Cochabamba",
    "coords": {
        "lat": -17.3856273,
        "lng": -66.1472939
    }
}, {
    "name": "Main square \"6 de Agosto\", Sacaba",
    "coords": {
        "lat": -17.4038788,
        "lng": -66.0401162
    }
}, {
    "name": "Punto De Encuentro Carla, Quillacollo",
    "coords": {
        "lat": -17.4071731,
        "lng": -66.2836578
    }
}, {
    "name": "Trabajo NUR, Cochabamba",
    "coords": {
        "lat": -17.37328,
        "lng": -66.17533209999999
    }
}, {
    "name": "FUBODE AGENCIA LORETO, Avenida Panamericana, Cochabamba",
    "coords": {
        "lat": -17.4228284,
        "lng": -66.1582947
    }
}, {
    "name": "Alalay, Cochabamba",
    "coords": {
        "lat": -17.4268116,
        "lng": -66.1355775
    }
}, {
    "name": "Mormon Temple, Manzanilla, Cochabamba",
    "coords": {
        "lat": -17.3643091,
        "lng": -66.14773749999999
    }
}, {
    "name": "Biblioavion, Cochabamba",
    "coords": {
        "lat": -17.4197395,
        "lng": -66.140281
    }
}, {
    "name": "Cafe lea Mas, Cochabamba",
    "coords": {
        "lat": -17.3946349,
        "lng": -66.1589468
    }
}, {
    "name": "Colegio Valle Hermoso, M.Lutherking, Cochabamba",
    "coords": {
        "lat": -17.4404195,
        "lng": -66.1288605
    }
}, {
    "name": "Comando Departamental De Policía, Plaza 14 de Septiembre., Cochabamba",
    "coords": {
        "lat": -17.3931862,
        "lng": -66.1569361
    }
}, {
    "name": "Colegio, Avenida Reducto, Tiquipaya",
    "coords": {
        "lat": -17.3359194,
        "lng": -66.21942539999999
    }
}, {
    "name": "Apart Hotel Regina, Cochabamba",
    "coords": {
        "lat": -17.386291,
        "lng": -66.157702
    }
}, {
    "name": "Super Mercado America, Cochabamba",
    "coords": {
        "lat": -17.3724039,
        "lng": -66.1619759
    }
}, {
    "name": "Hostal Buenos Aires, 25 de Mayo, Cochabamba",
    "coords": {
        "lat": -17.389518,
        "lng": -66.1562348
    }
}, {
    "name": "U.E. Sacaba Diurno, Ingavi, Sacaba",
    "coords": {
        "lat": -17.4037064,
        "lng": -66.04473159999999
    }
}, {
    "name": "LOYOLA LTDA. AG. SAN MARTIN, Calle San Martin, Cochabamba",
    "coords": {
        "lat": -17.3941688,
        "lng": -66.1542043
    }
}, {
    "name": "UNICEN, Avenida Juan de La Rosa, Cochabamba",
    "coords": {
        "lat": -17.3763426,
        "lng": -66.1743919
    }
}, {
    "name": "Colegio Marista Fe y Alegria, Kapac Yupanqui, Cochabamba",
    "coords": {
        "lat": -17.3620231,
        "lng": -66.1622731
    }
}, {
    "name": "Mediterraneo II, Cochabamba",
    "coords": {
        "lat": -17.3741748,
        "lng": -66.1842652
    }
}, {
    "name": "Avenida Papa Paulo 1134, Cochabamba",
    "coords": {
        "lat": -17.3835079,
        "lng": -66.1486602
    }
}, {
    "name": "Hotel Regina Resort & Convenciones, Camino a Apote, Cochabamba",
    "coords": {
        "lat": -17.335992,
        "lng": -66.230755
    }
}, {
    "name": "GEOTECNIA, Pasaje Grover Suarez, Cochabamba",
    "coords": {
        "lat": -17.3870658,
        "lng": -66.16521209999999
    }
}, {
    "name": "CNS regional Cbba, Cochabamba",
    "coords": {
        "lat": -17.3959035,
        "lng": -66.1561301
    }
}, {
    "name": "ECOLOGICAL PRODUCTS NATURE S.A., Avenida Melchor Urquidi, Cochabamba",
    "coords": {
        "lat": -17.3726263,
        "lng": -66.1498189
    }
}, {
    "name": "SEGIP, Quillacollo, Cochabamba",
    "coords": {
        "lat": -17.394625,
        "lng": -66.2811443
    }
}, {
    "name": "Iglesia Adventista Villa Pagador",
    "coords": {
        "lat": -17.4422766,
        "lng": -66.1125023
    }
}, {
    "name": "Servicio Departamental de Caminos, Ave Circunvalacion Beijing, Cochabamba",
    "coords": {
        "lat": -17.3742315,
        "lng": -66.1283274
    }
}, {
    "name": "Iglesia Evangélica Pentecostal de Bolivia - Alto Cochabamba, Cochabamba",
    "coords": {
        "lat": -17.4224298,
        "lng": -66.14102729999999
    }
}, {
    "name": "lavaderos y parqueos el prado, Avenida José Ballivian, Cochabamba",
    "coords": {
        "lat": -17.384514,
        "lng": -66.1585793
    }
}, {
    "name": "Colegio Ovando, Cochabamba",
    "coords": {
        "lat": -17.394433,
        "lng": -66.13911689999999
    }
}, {
    "name": "Policia, Quillacollo",
    "coords": {
        "lat": -17.3970241,
        "lng": -66.2817623
    }
}, {
    "name": "La Papelera S.A., Avenida Capitán Víctor Ustáriz, Colcapirhua Municipality",
    "coords": {
        "lat": -17.3940417,
        "lng": -66.22937619999999
    }
}, {
    "name": "Estación de servicio \"Panamericana\", Cochabamba",
    "coords": {
        "lat": -17.3832785,
        "lng": -66.1830257
    }
}, {
    "name": "Canon, Calle Lanza, Cochabamba",
    "coords": {
        "lat": -17.3939994,
        "lng": -66.15299929999999
    }
}, {
    "name": "Fundación Universitaria Simón I. Patiño, Potosi, Cochabamba",
    "coords": {
        "lat": -17.3745436,
        "lng": -66.15256440000002
    }
}, {
    "name": "Parque Killman, Cochabamba",
    "coords": {
        "lat": -17.4099132,
        "lng": -66.1693233
    }
}, {
    "name": "Coronilla, Cochabamba",
    "coords": {
        "lat": -17.3817332,
        "lng": -66.1172666
    }
}, {
    "name": "FERRETERIA AMERICA EXPRESS, Avenida Circunvalacion, Cochabamba",
    "coords": {
        "lat": -17.371171,
        "lng": -66.1405293
    }
}, {
    "name": "Capilla San Agustin, Cochabamba",
    "coords": {
        "lat": -17.3731099,
        "lng": -66.14302219999999
    }
}, {
    "name": "Capresso Café, Cochabamba",
    "coords": {
        "lat": -17.381335,
        "lng": -66.1817817
    }
}, {
    "name": "Super Mercado America SRL. - Central, Avenida América, Cochabamba",
    "coords": {
        "lat": -17.3724247,
        "lng": -66.16194109999999
    }
}, {
    "name": "Armenia Hotel, General Achá, Cochabamba",
    "coords": {
        "lat": -17.3942686,
        "lng": -66.1634888
    }
}, {
    "name": "Mariscal Santa Cruz, Calle Hernan Morales, Cochabamba",
    "coords": {
        "lat": -17.4005556,
        "lng": -66.1741667
    }
}, {
    "name": "Surtidor Coronilla, Cochabamba",
    "coords": {
        "lat": -17.4071388,
        "lng": -66.16428810000001
    }
}, {
    "name": "Templo mormon, Belgica, Cochabamba",
    "coords": {
        "lat": -17.4465155,
        "lng": -66.12397709999999
    }
}, {
    "name": "Germán Urquidi, Avenida Aniceto Arce, Cochabamba",
    "coords": {
        "lat": -17.3860465,
        "lng": -66.1480329
    }
}, {
    "name": "Caja de Salud de la Banca Privada, Hamiraya, Cochabamba",
    "coords": {
        "lat": -17.3955369,
        "lng": -66.1605677
    }
}, {
    "name": "Imcruz, Avenida América, Cochabamba",
    "coords": {
        "lat": -17.3719049,
        "lng": -66.1763842
    }
}, {
    "name": "Cala-Cala",
    "coords": {
        "lat": -17.3500083,
        "lng": -66.16234779999999
    }
}, {
    "name": "Nisedo Rodriguez 120, Cochabamba",
    "coords": {
        "lat": -17.3615534,
        "lng": -66.1851046
    }
}, {
    "name": "Palacio de Justicia/ Quillacollo, Quillacollo",
    "coords": {
        "lat": -17.3989704,
        "lng": -66.2798564
    }
}, {
    "name": "Hospital Viedma, Venezuela, Cochabamba",
    "coords": {
        "lat": -17.3855473,
        "lng": -66.1486484
    }
}, {
    "name": "Unidad Educativa La Salle, Los Comuneros, Cochabamba",
    "coords": {
        "lat": -17.4044963,
        "lng": -66.1686185
    }
}, {
    "name": "La Maica, 7",
    "coords": {
        "lat": -17.5171574,
        "lng": -65.873487
    }
}, {
    "name": "COLISEO UMSS, Cochabamba",
    "coords": {
        "lat": -17.3944222,
        "lng": -66.1430812
    }
}, {
    "name": "Banco Prodem S.A. - Agencia El Avión, Cochabamba",
    "coords": {
        "lat": -17.4104647,
        "lng": -66.1642492
    }
}, {
    "name": "Sivingani",
    "coords": {
        "lat": -17.4740171,
        "lng": -66.1795163
    }
}, {
    "name": "Los Castores, Avenida Simón López, Cochabamba",
    "coords": {
        "lat": -17.359784,
        "lng": -66.18263000000002
    }
}, {
    "name": "Comuna Alejo Calatayud, Avenida Petrolera, Cochabamba",
    "coords": {
        "lat": -17.4324485,
        "lng": -66.1497526
    }
}, {
    "name": "Kori Simi, Calle Lanza, Cochabamba",
    "coords": {
        "lat": -17.3852562,
        "lng": -66.1556983
    }
}, {
    "name": "chillimarca house, Cochabamba",
    "coords": {
        "lat": -17.334058,
        "lng": -66.201092
    }
}, {
    "name": "El Prado Hotel, Cochabamba",
    "coords": {
        "lat": -17.3850385,
        "lng": -66.15828640000001
    }
}, {
    "name": "CORTE Y PLEGADO MOYA, Cochabamba",
    "coords": {
        "lat": -17.4331652,
        "lng": -66.16192939999999
    }
}, {
    "name": "Feria Internacional, Alalay",
    "coords": {
        "lat": -17.4178569,
        "lng": -66.129594
    }
}, {
    "name": "Hospital Univalle, Cochabamba",
    "coords": {
        "lat": -17.421234,
        "lng": -66.1328995
    }
}, {
    "name": "Cementerio Sacaba, Sacaba",
    "coords": {
        "lat": -17.4113106,
        "lng": -66.0411013
    }
}, {
    "name": "Hospital Univalle Norte, Cochabamba",
    "coords": {
        "lat": -17.3722017,
        "lng": -66.1608364
    }
}, {
    "name": "Naval Area No.1, Anibal Capriles, Cochabamba",
    "coords": {
        "lat": -17.3830139,
        "lng": -66.1430034
    }
}, {
    "name": "Hospital \"Edgar Montaño\", Cochabamba",
    "coords": {
        "lat": -17.346784,
        "lng": -66.1749636
    }
}, {
    "name": "Mercado De Colcapirhua, Avenida C. Blanco Galindo, Colcapirhua Municipality",
    "coords": {
        "lat": -17.3905754,
        "lng": -66.2439899
    }
}, {
    "name": "Fe y Alegría - Ciudad de los Niños, Cochabamba",
    "coords": {
        "lat": -17.3432239,
        "lng": -66.1871767
    }
}, {
    "name": "Centro De Salud Cerró Verde, Yawar Mallku, Cochabamba",
    "coords": {
        "lat": -17.4149284,
        "lng": -66.1437179
    }
}, {
    "name": "Panaderia Almanza, Nataniel Aguirre, Quillacollo",
    "coords": {
        "lat": -17.3904974,
        "lng": -66.2962386
    }
}, {
    "name": "Rotary Club Cochabamba, Cochabamba",
    "coords": {
        "lat": -17.373198,
        "lng": -66.148741
    }
}, {
    "name": "Plaza Principal, 15 de Agosto, Quillacollo",
    "coords": {
        "lat": -17.3975595,
        "lng": -66.2815744
    }
}, {
    "name": "Teatro Adela Zamudio, Cochabamba",
    "coords": {
        "lat": -17.3919458,
        "lng": -66.1559048
    }
}, {
    "name": "Here And Tech, Felix Aranibar, Cochabamba",
    "coords": {
        "lat": -17.3799474,
        "lng": -66.165499
    }
}, {
    "name": "Colegio Maria Auxiliadora, San Fco. De Sales, Cochabamba",
    "coords": {
        "lat": -17.4352437,
        "lng": -66.1596338
    }
}, {
    "name": "El Palacio Del Chicharrón FIL MAXIM, Avenida Siglo XX, Cochabamba",
    "coords": {
        "lat": -17.4417901,
        "lng": -66.12520930000001
    }
}, {
    "name": "Parque El Pulpo, Juan Roman, Cochabamba",
    "coords": {
        "lat": -17.4396167,
        "lng": -66.15621279999999
    }
}, {
    "name": "Entel, Quillacollo",
    "coords": {
        "lat": -17.396074,
        "lng": -66.279212
    }
}, {
    "name": "Colegio España, Tumusla, Cochabamba",
    "coords": {
        "lat": -17.3964317,
        "lng": -66.1616267
    }
}, {
    "name": "Centro De Salud Politecnico Militar Aeronautico, Cochabamba",
    "coords": {
        "lat": -17.4484687,
        "lng": -66.1402427
    }
}, {
    "name": "Constructora DecorInternacional, Cochabamba",
    "coords": {
        "lat": -17.3731351,
        "lng": -66.1556239
    }
}, {
    "name": "Banco Prodem S.A. - Agencia Cruce Taquiña, Alfredo Araujo, Cochabamba",
    "coords": {
        "lat": -17.3548268,
        "lng": -66.18783119999999
    }
}, {
    "name": "Colomi",
    "coords": {
        "lat": -17.3399775,
        "lng": -65.8649827
    }
}, {
    "name": "Distribuidor Beiging, Avenida C. Blanco Galindo, Cochabamba",
    "coords": {
        "lat": -17.3934246,
        "lng": -66.1844097
    }
}, {
    "name": "COLEGIO FELIX CAPRILES, Cochabamba",
    "coords": {
        "lat": -17.4079707,
        "lng": -66.1822892
    }
}, {
    "name": "Mercado Ingavi, Cochabamba",
    "coords": {
        "lat": -17.3901342,
        "lng": -66.170833
    }
}, {
    "name": "LA MERCED, Avenida Capitán Víctor Ustáriz, Cochabamba",
    "coords": {
        "lat": -17.3973263,
        "lng": -66.2075957
    }
}, {
    "name": "Restaurante De La Angostura",
    "coords": {
        "lat": -17.5210941,
        "lng": -66.08720939999999
    }
}, {
    "name": "Sucremanta, E. Arze, Cochabamba",
    "coords": {
        "lat": -17.3947498,
        "lng": -66.1562964
    }
}, {
    "name": "YPFB, Cochabamba",
    "coords": {
        "lat": -17.385468,
        "lng": -66.153746
    }
}, {
    "name": "Carrera de Ingeniería Civil UMSS, Sucre",
    "coords": {
        "lat": -17.3933867,
        "lng": -66.144926
    }
}, {
    "name": "PARE DE SUFRIR CLIZA, Cliza",
    "coords": {
        "lat": -17.5894955,
        "lng": -65.93280399999999
    }
}, {
    "name": "Casona de La Pascualita, Av. Aniceto Padilla, Cochabamba",
    "coords": {
        "lat": -17.3779631,
        "lng": -66.1584676
    }
}, {
    "name": "Centro Ecoturístico \"El Poncho\" (Quillacollo - Cochabamba), Unnamed Road",
    "coords": {
        "lat": -17.337405,
        "lng": -66.291997
    }
}, {
    "name": "New York Chicken, Cochabamba",
    "coords": {
        "lat": -17.362624,
        "lng": -66.168583
    }
}, {
    "name": "Acuaventura, Quillacollo",
    "coords": {
        "lat": -17.3650982,
        "lng": -66.2764125
    }
}, {
    "name": "Banco Sol, Avenida C. Blanco Galindo, Cochabamba",
    "coords": {
        "lat": -17.393749,
        "lng": -66.1822241
    }
}, {
    "name": "BNB, Cochabamba",
    "coords": {
        "lat": -17.3925127,
        "lng": -66.1565888
    }
}, {
    "name": "Cementerio Concordia, Colcapirhua Municipality",
    "coords": {
        "lat": -17.3805354,
        "lng": -66.2223255
    }
}, {
    "name": "BancoSol, Avenida Ayacucho, Cochabamba",
    "coords": {
        "lat": -17.4086147,
        "lng": -66.1565579
    }
}, {
    "name": "Jacaranda, Idelfonso Murguia, Cochabamba",
    "coords": {
        "lat": -17.3815574,
        "lng": -66.17554129999999
    }
}, {
    "name": "Casa de la Juventud, Jordan, Cochabamba",
    "coords": {
        "lat": -17.3937183,
        "lng": -66.1506758
    }
}, {
    "name": "Cancha Libertador, Alalay",
    "coords": {
        "lat": -17.4099541,
        "lng": -66.14388149999999
    }
}, {
    "name": "Salomón Klein, Alcides Arguedas, Cochabamba",
    "coords": {
        "lat": -17.3740895,
        "lng": -66.1710856
    }
}, {
    "name": "Maryknoll Elementary School, J.Capriles, Cochabamba",
    "coords": {
        "lat": -17.3714692,
        "lng": -66.16180299999999
    }
}, {
    "name": "Chicharronería Doña Pola, Cochabamba",
    "coords": {
        "lat": -17.3724026,
        "lng": -66.1593129
    }
}, {
    "name": "Templo de San Pedro, Tarata",
    "coords": {
        "lat": -17.6111482,
        "lng": -66.0232664
    }
}, {
    "name": "Cliza, Mariano Baptista, Cochabamba",
    "coords": {
        "lat": -17.5897044,
        "lng": -65.9345033
    }
}, {
    "name": "Cementerio General Quillacollo, Quillacollo",
    "coords": {
        "lat": -17.4003125,
        "lng": -66.2945467
    }
}, {
    "name": "On Store Hupermall, Avenida Portales, Cochabamba",
    "coords": {
        "lat": -17.3757213,
        "lng": -66.1503725
    }
}, {
    "name": "Huper Hotel Boutique, Cochabamba",
    "coords": {
        "lat": -17.3755099,
        "lng": -66.1501763
    }
}, {
    "name": "Quesos oaxaca urbanizacion jacaranda, Zoologico, Cochabamba",
    "coords": {
        "lat": -17.3833,
        "lng": -66.16669999999999
    }
}, {
    "name": "Super Bowling Club, Avenida D'Orbigni, Cochabamba",
    "coords": {
        "lat": -17.3870771,
        "lng": -66.1829903
    }
}, {
    "name": "la cancha, Calle Esteban Arze, Cochabamba",
    "coords": {
        "lat": -17.4060854,
        "lng": -66.1562742
    }
}, {
    "name": "Rincon El Pueblito, Cochabamba",
    "coords": {
        "lat": -17.3748606,
        "lng": -66.14167450000001
    }
}, {
    "name": "Club Tenis Municipal, Cochabamba",
    "coords": {
        "lat": -17.3945553,
        "lng": -66.1678433
    }
}, {
    "name": "Colegio Jose Nicolas Maldonado, Sacaba",
    "coords": {
        "lat": -17.4015788,
        "lng": -66.0450783
    }
}, {
    "name": "Mi Casa Restaurante, Avenida Papa Paulo, Cochabamba",
    "coords": {
        "lat": -17.3852776,
        "lng": -66.1434912
    }
}, {
    "name": "Radio Taxi Ciudad Jardin, Cochabamba",
    "coords": {
        "lat": -17.376616,
        "lng": -66.142823
    }
}, {
    "name": "TAB-CARGO F.A.B., Avenida Del Cabildo, Cochabamba",
    "coords": {
        "lat": -17.4205127,
        "lng": -66.16895079999999
    }
}, {
    "name": "Colegio San Agustín, Cochabamba",
    "coords": {
        "lat": -17.3734282,
        "lng": -66.1437159
    }
}, {
    "name": "Farmacias Bolivia, Avenida Ayacucho, Cochabamba",
    "coords": {
        "lat": -17.3926955,
        "lng": -66.15888819999999
    }
}, {
    "name": "Ucatec, Calle Esteban Arze, Cochabamba",
    "coords": {
        "lat": -17.3958114,
        "lng": -66.1560305
    }
}, {
    "name": "IDIF, Albert Einsten, Cochabamba",
    "coords": {
        "lat": -17.3773748,
        "lng": -66.2001586
    }
}, {
    "name": "Banco Sol, Agencia San Martin, Calle San Martin, No",
    "coords": {
        "lat": -17.4013341,
        "lng": -66.1533711
    }
}, {
    "name": "Clinica Santa Lucia De Ojos, Cochabamba",
    "coords": {
        "lat": -17.3844877,
        "lng": -66.15459779999999
    }
}, {
    "name": "Plaza de San Benito, San Benito",
    "coords": {
        "lat": -17.522953,
        "lng": -65.894432
    }
}, {
    "name": "TENIS CLUB COCHABAMA, Cochabamba",
    "coords": {
        "lat": -17.3817363,
        "lng": -66.1590238
    }
}, {
    "name": "Seminario Teologico Bautista, Avenida Heroínas, Cochabamba",
    "coords": {
        "lat": -17.3900408,
        "lng": -66.14134039999999
    }
}, {
    "name": "Parque Prehistorico Sacaba",
    "coords": {
        "lat": -17.3965354,
        "lng": -66.052678
    }
}, {
    "name": "Planta CBN Taquiña, Avenida Centenario, Cochabamba",
    "coords": {
        "lat": -17.3286894,
        "lng": -66.18529579999999
    }
}, {
    "name": "Hospital, Innominada, Cochabamba",
    "coords": {
        "lat": -17.3833479,
        "lng": -66.0968312
    }
}, {
    "name": "Banco Mercantil Santa Cruz, Cochabamba",
    "coords": {
        "lat": -17.3616682,
        "lng": -66.1819994
    }
}, {
    "name": "Familia Alarcon Pucun, Cochabamba",
    "coords": {
        "lat": -17.3291122,
        "lng": -66.1938504
    }
}, {
    "name": "Hotel Regina, Jose de La Reza, Cochabamba",
    "coords": {
        "lat": -17.386751,
        "lng": -66.157297
    }
}, {
    "name": "Hupermall Arena, Cochabamba",
    "coords": {
        "lat": -17.3757826,
        "lng": -66.1499497
    }
}, {
    "name": "Rincón Aiquileño, Cochabamba",
    "coords": {
        "lat": -17.3673564,
        "lng": -66.1146729
    }
}, {
    "name": "Clínica Santa María de los Angeles, Av Papa Paulo, c German Urquidi, Cochabamba",
    "coords": {
        "lat": -17.3833418,
        "lng": -66.1490731
    }
}, {
    "name": "Sofia al Paso America, Daniel Albornos, Cochabamba",
    "coords": {
        "lat": -17.3718651,
        "lng": -66.1690701
    }
}, {
    "name": "Salon de Eventos Manantial, Quillacollo",
    "coords": {
        "lat": -17.4014956,
        "lng": -66.2840068
    }
}, {
    "name": "Mercado Martin Cardenas, Quillacollo",
    "coords": {
        "lat": -17.406006,
        "lng": -66.28288189999999
    }
}, {
    "name": "Bella Vista, Innominada",
    "coords": {
        "lat": -17.3746806,
        "lng": -66.0952929
    }
}, {
    "name": "Iglesia de Dios Reformada \"Villa Israel\", Av. Panamericana",
    "coords": {
        "lat": -17.4870569,
        "lng": -66.1764706
    }
}, {
    "name": "BNB, Av. America, Cochabamba",
    "coords": {
        "lat": -17.3730999,
        "lng": -66.1565056
    }
}, {
    "name": "Olmedo Patton Inversiones & Asociados, Calle J. C. Torrez, Cochabamba",
    "coords": {
        "lat": -17.38257,
        "lng": -66.145003
    }
}, {
    "name": "Banco Bisa Cine Center, Avenida Ramón Rivero, Cochabamba",
    "coords": {
        "lat": -17.3809772,
        "lng": -66.1514396
    }
}, {
    "name": "UE Elena Arce De Arce, Cochabamba",
    "coords": {
        "lat": -17.3703285,
        "lng": -66.164215
    }
}, {
    "name": "Sta Cruz Y Barrientos, Santa Cruz, Sacaba",
    "coords": {
        "lat": -17.4031033,
        "lng": -66.0307275
    }
}, {
    "name": "Bricks4Kidz®, Oscar Cerruto, Cochabamba",
    "coords": {
        "lat": -17.3747458,
        "lng": -66.1793946
    }
}, {
    "name": "Cerebritos, España, Cochabamba",
    "coords": {
        "lat": -17.3904449,
        "lng": -66.1570689
    }
}, {
    "name": "Postulantado La Salle, La Paz, Colcapirhua Municipality",
    "coords": {
        "lat": -17.3643931,
        "lng": -66.2356016
    }
}, {
    "name": "CIFEMA-SAM, Cochabamba",
    "coords": {
        "lat": -17.4462166,
        "lng": -66.1431097
    }
}, {
    "name": "Acertijos, Casto Rojas, Cochabamba",
    "coords": {
        "lat": -17.3813731,
        "lng": -66.1701259
    }
}, {
    "name": "Chifa Victoria, Avenida Uyuni, Cochabamba",
    "coords": {
        "lat": -17.3769037,
        "lng": -66.1434787
    }
}, {
    "name": "Jardim Ipe, São Paulo - State of São Paulo, 05797-350, Brazil",
    "coords": {
        "lat": -23.653659,
        "lng": -46.7707642
    }
}, {
    "name": "Cementerio General de Vinto, Quillacollo",
    "coords": {
        "lat": -17.407937,
        "lng": -66.3057042
    }
}, {
    "name": "MicroMercado Los Robles, Cochabamba",
    "coords": {
        "lat": -17.3605911,
        "lng": -66.1547686
    }
}, {
    "name": "Cooperativa Sarco, Avenida América, Cochabamba",
    "coords": {
        "lat": -17.3713847,
        "lng": -66.1769414
    }
}, {
    "name": "H.A.M. Colcapirhua, Colcapirhua Municipality",
    "coords": {
        "lat": -17.3886291,
        "lng": -66.2404584
    }
}, {
    "name": "Jardin Botanico, Cochabamba",
    "coords": {
        "lat": -17.3776759,
        "lng": -66.1399879
    }
}, {
    "name": "Cristo Viene (Central), Cochabamba",
    "coords": {
        "lat": -17.3836369,
        "lng": -66.1535864
    }
}, {
    "name": "Esfm Simón Rodríguez U.A. Sacaba",
    "coords": {
        "lat": -17.4116721,
        "lng": -66.0102763
    }
}, {
    "name": "Hotel Recoleta Inn ***, Tomas Frias, Cochabamba",
    "coords": {
        "lat": -17.377905,
        "lng": -66.1556505
    }
}, {
    "name": "Hotel - HI-Hostal Versalles, Avenida Ayacucho, Cochabamba",
    "coords": {
        "lat": -17.3987234,
        "lng": -66.15793529999999
    }
}, {
    "name": "Colegio, Escuela Quintanilla",
    "coords": {
        "lat": -17.385141,
        "lng": -66.1103227
    }
}, {
    "name": "Plaza Principal Itapaya, Itapaya, Cochabamba",
    "coords": {
        "lat": -17.4427605,
        "lng": -66.1180347
    }
}, {
    "name": "La Cancha - Venta Computadoras, Agustin Lopez, Cochabamba",
    "coords": {
        "lat": -17.4021612,
        "lng": -66.1564784
    }
}, {
    "name": "Cancha De Cesped San Miguel, Alalay",
    "coords": {
        "lat": -17.4393783,
        "lng": -66.1275294
    }
}, {
    "name": "La Taverna - de - L'Espanyol, Chuquisaca, Cochabamba",
    "coords": {
        "lat": -17.3861984,
        "lng": -66.1558409
    }
}, {
    "name": "Laboratorios Farmaceuticos IFARBO Ltda., Colcapirhua Municipality",
    "coords": {
        "lat": -17.3946789,
        "lng": -66.2138475
    }
}, {
    "name": "Upal AMERICA, Avenida América, Cochabamba",
    "coords": {
        "lat": -17.3730698,
        "lng": -66.1542362
    }
}, {
    "name": "Sudoeste, Cochabamba",
    "coords": {
        "lat": -17.4045551,
        "lng": -66.1563987
    }
}, {
    "name": "Sombrero de Chola, Avenida América, Cochabamba",
    "coords": {
        "lat": -17.3733738,
        "lng": -66.149607
    }
}, {
    "name": "PIO X AG. QUINTANILLA, Avenida Maximiliano Kolbe",
    "coords": {
        "lat": -17.3835745,
        "lng": -66.1093242
    }
}, {
    "name": "Cinema & Teather Astor, Calle sucre, Cochabamba",
    "coords": {
        "lat": -17.3939739,
        "lng": -66.1550847
    }
}, {
    "name": "Centro De Salud Simon Bolivar, Colcapirhua Municipality",
    "coords": {
        "lat": -17.4025949,
        "lng": -66.2355597
    }
}, {
    "name": "Centro Médico Los Olivos, Calle J. Aguayo, Cochabamba",
    "coords": {
        "lat": -17.3777766,
        "lng": -66.176236
    }
}, {
    "name": "EDIFICIO LOS MOLLES, Cochabamba",
    "coords": {
        "lat": -17.3749228,
        "lng": -66.1795255
    }
}, {
    "name": "Los Molles, Sipe Sipe",
    "coords": {
        "lat": -17.4549855,
        "lng": -66.3499509
    }
}, {
    "name": "Edificio Cowork, Cochabamba",
    "coords": {
        "lat": -17.371549,
        "lng": -66.1469505
    }
}, {
    "name": "Banco Union, Avenida Juan de La Rosa, Cochabamba",
    "coords": {
        "lat": -17.376827,
        "lng": -66.1725868
    }
}, {
    "name": "Tarata",
    "coords": {
        "lat": -17.6091383,
        "lng": -66.0255368
    }
}, {
    "name": "Fe y Alegría - Santa María Micaela \"B\", Montenegro, Cochabamba",
    "coords": {
        "lat": -17.4066922,
        "lng": -66.1767321
    }
}, {
    "name": "La Pampa, Santivañez, Cochabamba",
    "coords": {
        "lat": -17.5572876,
        "lng": -66.13901229999999
    }
}, {
    "name": "La Colonia, Atahuallpa, Cochabamba",
    "coords": {
        "lat": -17.3616156,
        "lng": -66.16156529999999
    }
}, {
    "name": "Clínica \"Arebalo\", Monseñor Roberto Nicoli, Sacaba",
    "coords": {
        "lat": -17.4031244,
        "lng": -66.043869
    }
}, {
    "name": "Hielo y Agua Chacaltaya, Avenida M.Urquidi, Cochabamba",
    "coords": {
        "lat": -17.3686252,
        "lng": -66.15018409999999
    }
}, {
    "name": "Urbanizacion Bella Vista",
    "coords": {
        "lat": -17.3740144,
        "lng": -66.09534889999999
    }
}, {
    "name": "Cancha Magisterio, Cochabamba",
    "coords": {
        "lat": -17.36942,
        "lng": -66.18143069999999
    }
}, {
    "name": "Iglesia Asamblea de Dios Boliviana Ministerio Cristo Vive, Cochabamba",
    "coords": {
        "lat": -17.4194658,
        "lng": -66.1338579
    }
}, {
    "name": "Colegio La Salle, Junin, Cochabamba",
    "coords": {
        "lat": -17.3893424,
        "lng": -66.160814
    }
}, {
    "name": "Charques Doña Maria, Tarapaca, Cochabamba",
    "coords": {
        "lat": -17.389071,
        "lng": -66.1640571
    }
}, {
    "name": "Hamburgón - Turumanka, C.Ismael Cespedez, Cochabamba",
    "coords": {
        "lat": -17.3753269,
        "lng": -66.1821932
    }
}, {
    "name": "Sipe Sipe",
    "coords": {
        "lat": -17.4474874,
        "lng": -66.3438275
    }
}, {
    "name": "Capresso Sucursal Simeon Roncal America, Cochabamba",
    "coords": {
        "lat": -17.3723959,
        "lng": -66.16522619999999
    }
}, {
    "name": "Familia Galvez Chavez, Quillacollo",
    "coords": {
        "lat": -17.3984355,
        "lng": -66.2548757
    }
}, {
    "name": "Escuela Villa Victoria",
    "coords": {
        "lat": -17.4757884,
        "lng": -66.1686319
    }
}, {
    "name": "Colegio Tiquirani, Cochabamba",
    "coords": {
        "lat": -17.3902138,
        "lng": -66.17424609999999
    }
}, {
    "name": "Parque del Arquitecto, Cochabamba",
    "coords": {
        "lat": -17.3740156,
        "lng": -66.1458021
    }
}, {
    "name": "Plaza 14 de Septiembre, Cochabamba",
    "coords": {
        "lat": -17.3942109,
        "lng": -66.1563759
    }
}, {
    "name": "Plaza 14 de Septiembre., Plaza 14 de Septiembre., Cochabamba",
    "coords": {
        "lat": -17.3937938,
        "lng": -66.15696059999999
    }
}, {
    "name": "Vila Curuçá Velha, São Paulo - State of São Paulo, 08030-490, Brazil",
    "coords": {
        "lat": -23.5027404,
        "lng": -46.4230861
    }
}, {
    "name": "Colegio Católico Guadalupano, Cochabamba",
    "coords": {
        "lat": -17.3692805,
        "lng": -66.1447227
    }
}, {
    "name": "ARCO IRIS eventos sociales, Avenida Siglo XX, Cochabamba",
    "coords": {
        "lat": -17.4369006,
        "lng": -66.1255369
    }
}, {
    "name": "El Avion, Cochabamba",
    "coords": {
        "lat": -17.3988041,
        "lng": -66.15752859999999
    }
}, {
    "name": "GOOD LIFE SRL, Cochabamba",
    "coords": {
        "lat": -17.3824485,
        "lng": -66.1577002
    }
}, {
    "name": "Pairumani",
    "coords": {
        "lat": -17.3606465,
        "lng": -66.3244866
    }
}, {
    "name": "AQUILIA - Abogados y Consultores, Sucre, Cochabamba",
    "coords": {
        "lat": -17.3937253,
        "lng": -66.1548648
    }
}, {
    "name": "Distribuidora Siles, Cochabamba",
    "coords": {
        "lat": -17.4068276,
        "lng": -66.15337319999999
    }
}, {
    "name": "AUTOVENTA JR, Cochabamba",
    "coords": {
        "lat": -17.3707656,
        "lng": -66.1886509
    }
}, {
    "name": "Universidad Catolica San Pablo, Cochabamba",
    "coords": {
        "lat": -17.3731671,
        "lng": -66.1424019
    }
}, {
    "name": "Colegio Edgar Montaño, Yuracare, Cochabamba",
    "coords": {
        "lat": -17.3751387,
        "lng": -66.1858989
    }
}, {
    "name": "Megatlon Xpress, Pasaje del Quijote, Cochabamba",
    "coords": {
        "lat": -17.3896274,
        "lng": -66.1667698
    }
}, {
    "name": "Tigo Money, Tiquipaya",
    "coords": {
        "lat": -17.3372511,
        "lng": -66.2208364
    }
}, {
    "name": "BancoSol, 25 de Mayo, Cochabamba",
    "coords": {
        "lat": -17.3989409,
        "lng": -66.1543267
    }
}, {
    "name": "Colegio Elena Arze, B.M. Pulacayo, Cochabamba",
    "coords": {
        "lat": -17.3705358,
        "lng": -66.16437359999999
    }
}, {
    "name": "Restaurant Quillacollo, Quillacollo, Cochabamba",
    "coords": {
        "lat": -17.3933545,
        "lng": -66.26987729999999
    }
}, {
    "name": "Cancha Ayacucho, Cochabamba",
    "coords": {
        "lat": -17.4139766,
        "lng": -66.1653223
    }
}, {
    "name": "Plazuela \"Demetrio Canelas\", Cochabamba",
    "coords": {
        "lat": -17.3795765,
        "lng": -66.1712675
    }
}, {
    "name": "Hupermall, Avenida Pando, Cochabamba",
    "coords": {
        "lat": -17.3756655,
        "lng": -66.150937
    }
}, {
    "name": "Templo, Cercado, Cochabamba",
    "coords": {
        "lat": -17.4680139,
        "lng": -66.17382669999999
    }
}, {
    "name": "Los Molles, Cochabamba",
    "coords": {
        "lat": -17.3475162,
        "lng": -66.197644
    }
}, {
    "name": "Centro de Salud COMBASE, Cochabamba",
    "coords": {
        "lat": -17.4561566,
        "lng": -66.1608129
    }
}, {
    "name": "Sushi Cochabamba, Cochabamba",
    "coords": {
        "lat": -17.3919466,
        "lng": -66.1620954
    }
}, {
    "name": "Plazuela Marcelo Quiroga Santa Cruz, Cochabamba",
    "coords": {
        "lat": -17.4151802,
        "lng": -66.1625337
    }
}, {
    "name": "Pollos Panchita, Avenida América, Cochabamba",
    "coords": {
        "lat": -17.3731449,
        "lng": -66.14933979999999
    }
}, {
    "name": "Wistu Piku, Calle Castel Quiroga, Cochabamba",
    "coords": {
        "lat": -17.3860468,
        "lng": -66.1474589
    }
}, {
    "name": "Urbanizacion San Andres, Cochabamba",
    "coords": {
        "lat": -17.3421282,
        "lng": -66.1747956
    }
}, {
    "name": "Digicorp, Rene fernandez, Cochabamba",
    "coords": {
        "lat": -17.3728218,
        "lng": -66.1277872
    }
}, {
    "name": "Antofagasta, Cochabamba",
    "coords": {
        "lat": -17.3868538,
        "lng": -66.1853082
    }
}, {
    "name": "Perú Wok - Cochabamba, Cochabamba",
    "coords": {
        "lat": -17.3790757,
        "lng": -66.1523251
    }
}, {
    "name": "LADISLAO CABRERA 554, Ladislao Cabrera, Cochabamba",
    "coords": {
        "lat": -17.3969318,
        "lng": -66.15303589999999
    }
}, {
    "name": "MULTICENTRO ENTEL, AV SUECIA, CBBA, Avenida República de Suecia, Cochabamba",
    "coords": {
        "lat": -17.4192647,
        "lng": -66.1469942
    }
}, {
    "name": "Edificio Don Melchor, Avenida Melchor Urquidi, Cochabamba",
    "coords": {
        "lat": -17.3770453,
        "lng": -66.14945519999999
    }
}, {
    "name": "Hipermaxi Sofer, Avenida Oquendo, Cochabamba",
    "coords": {
        "lat": -17.3845229,
        "lng": -66.15068210000001
    }
}, {
    "name": "Hospital Villa Moderna, Quillacollo",
    "coords": {
        "lat": -17.3877822,
        "lng": -66.28153879999999
    }
}, {
    "name": "Chicken's Kingdom, Avenida América, Cochabamba",
    "coords": {
        "lat": -17.3710722,
        "lng": -66.17944589999999
    }
}, {
    "name": "UDABOL - Derecho, Avenida Ayacucho, Cochabamba",
    "coords": {
        "lat": -17.3947521,
        "lng": -66.1583387
    }
}, {
    "name": "Huanchaca Motors, Cochabamba",
    "coords": {
        "lat": -17.4201752,
        "lng": -66.127746
    }
}, {
    "name": "Cajero Automatico \"Banco Bisa\" Hipermaxi, Avenida C. Blanco Galindo, Cochabamba",
    "coords": {
        "lat": -17.3937336,
        "lng": -66.18200279999999
    }
}, {
    "name": "Centro de Salud Chimba, Cochabamba",
    "coords": {
        "lat": -17.4057922,
        "lng": -66.18165259999999
    }
}, {
    "name": "Alameda, Cochabamba",
    "coords": {
        "lat": -17.3892416,
        "lng": -66.190889
    }
}, {
    "name": "Boulevard de La Recoleta, Quillacollo",
    "coords": {
        "lat": -17.3784563,
        "lng": -66.15184870000002
    }
}, {
    "name": "Iglesia Alfa Y Omega Cochabamba, Manuela Rodriguez, Cochabamba",
    "coords": {
        "lat": -17.4165254,
        "lng": -66.1564942
    }
}, {
    "name": "Hostal Kanata, Avenida Ayacucho, Cochabamba",
    "coords": {
        "lat": -17.4000851,
        "lng": -66.157495
    }
}, {
    "name": "CNS Norte, Potosi, Cochabamba",
    "coords": {
        "lat": -17.3769095,
        "lng": -66.15389019999999
    }
}, {
    "name": "Avenida Martín de la Rocha 1337, Cochabamba",
    "coords": {
        "lat": -17.3820182,
        "lng": -66.1650324
    }
}, {
    "name": "P3scados El Paso",
    "coords": {
        "lat": -17.3360353,
        "lng": -66.2652122
    }
}, {
    "name": "Hipermaxi, A.Borda, Cochabamba",
    "coords": {
        "lat": -17.394084,
        "lng": -66.1823335
    }
}, {
    "name": "Unidad Educativa EL MIRADOR, Alto Mirador",
    "coords": {
        "lat": -17.4725824,
        "lng": -66.2090783
    }
}, {
    "name": "parque el Pueblito, Cochabamba",
    "coords": {
        "lat": -17.3750895,
        "lng": -66.14126
    }
}, {
    "name": "Banco Prodem S.A.- Agencia Jordan, Jordan, Cochabamba",
    "coords": {
        "lat": -17.3953759,
        "lng": -66.1564286
    }
}, {
    "name": "Colegio Anglo Americano, Cochabamba",
    "coords": {
        "lat": -17.3688357,
        "lng": -66.15610699999999
    }
}, {
    "name": "Siglo XX, Quillacollo",
    "coords": {
        "lat": -17.3878833,
        "lng": -66.2519642
    }
}, {
    "name": "Hotel Heroinas, Cochabamba",
    "coords": {
        "lat": -17.3929453,
        "lng": -66.16045729999999
    }
}, {
    "name": "Papa Paulo market, Cochabamba",
    "coords": {
        "lat": -17.3837661,
        "lng": -66.1477103
    }
}, {
    "name": "CRISTO REY AG.EL PASO",
    "coords": {
        "lat": -17.3384977,
        "lng": -66.2660551
    }
}, {
    "name": "Juzgado Sacaba, Padilla, Sacaba",
    "coords": {
        "lat": -17.40467,
        "lng": -66.04233839999999
    }
}, {
    "name": "COMTECO, La Paz, Cochabamba",
    "coords": {
        "lat": -17.3852792,
        "lng": -66.1583161
    }
}, {
    "name": "Oficina Parque Tunari, Cochabamba",
    "coords": {
        "lat": -17.363641,
        "lng": -66.1430845
    }
}, {
    "name": "Cancha Deportiva (Wiracocha), Cochabamba",
    "coords": {
        "lat": -17.3663139,
        "lng": -66.1737831
    }
}, {
    "name": "Banco Mercantil Santa Cruz - Ag. Colcapirhua, Cochabamba",
    "coords": {
        "lat": -17.3906795,
        "lng": -66.2412606
    }
}, {
    "name": "El Bateon Restaurante, East Cardenas, Cochabamba",
    "coords": {
        "lat": -17.3730346,
        "lng": -66.1238729
    }
}, {
    "name": "Club Deportivo Evolution Voley Pacata, Cochabamba",
    "coords": {
        "lat": -17.3680223,
        "lng": -66.12197119999999
    }
}, {
    "name": "Residencial Jordan, Antezana, Cochabamba",
    "coords": {
        "lat": -17.3973317,
        "lng": -66.15118249999999
    }
}, {
    "name": "Urbanizacion El Bosque Norte, Avenida Centenario, Cochabamba",
    "coords": {
        "lat": -17.3382839,
        "lng": -66.1855054
    }
}, {
    "name": "Av Aroma Y Huayna Kapac, Avenida Aroma, Cochabamba",
    "coords": {
        "lat": -17.4003772,
        "lng": -66.1625574
    }
}, {
    "name": "Sauna Mar Y Sol, Cochabamba",
    "coords": {
        "lat": -17.3848623,
        "lng": -66.1852918
    }
}, {
    "name": "Colegio Adventista Sarmiento, Cochabamba",
    "coords": {
        "lat": -17.389421,
        "lng": -66.1488037
    }
}, {
    "name": "Cooperativa De Ahorro Y Crédito San Antonio, Tarata, Cochabamba",
    "coords": {
        "lat": -17.403173,
        "lng": -66.1549553
    }
}, {
    "name": "ES Valle Hermoso YPFB, Avenida Petrolera, Cochabamba",
    "coords": {
        "lat": -17.4496207,
        "lng": -66.1309158
    }
}, {
    "name": "Surtidor Automovil Club Bolivia, Francisco Pizarro, Cochabamba",
    "coords": {
        "lat": -17.3934044,
        "lng": -66.1741043
    }
}, {
    "name": "Parroquia María Auxiliadora, Avenida Panamericana, Cochabamba",
    "coords": {
        "lat": -17.4215155,
        "lng": -66.1583
    }
}, {
    "name": "Policia Boliviana - Seccional Villa México, Cochabamba",
    "coords": {
        "lat": -17.4355156,
        "lng": -66.1573583
    }
}, {
    "name": "Centro De Salud Pacata, Cochabamba",
    "coords": {
        "lat": -17.3657609,
        "lng": -66.1241857
    }
}, {
    "name": "Amplificacion Dj MEDITERRANEO, Cochabamba",
    "coords": {
        "lat": -17.3681871,
        "lng": -66.1210009
    }
}, {
    "name": "Banco Union, Avenida América, Cochabamba",
    "coords": {
        "lat": -17.3724087,
        "lng": -66.1615697
    }
}, {
    "name": "Hospital K'ara 'K'ara, Cochabamba",
    "coords": {
        "lat": -17.451877,
        "lng": -66.2014567
    }
}, {
    "name": "Av Ecológica y Calle Cucardas Norte, Avenida Ecológica, Tiquipaya",
    "coords": {
        "lat": -17.3470848,
        "lng": -66.2004982
    }
}, {
    "name": "Sombrero de Chola, Cooperativa de agua Guadalupe, Pillpintu, Cochabamba",
    "coords": {
        "lat": -17.3472499,
        "lng": -66.1768758
    }
}, {
    "name": "Iglesia Pentecostal de Bolivia",
    "coords": {
        "lat": -17.478578,
        "lng": -66.1703636
    }
}, {
    "name": "Tamborada, VALLE HERMOSO",
    "coords": {
        "lat": -17.4586767,
        "lng": -66.1334514
    }
}, {
    "name": "Super Jump Park, Av. Villazon (Carretera a Sacaba), Cochabamba",
    "coords": {
        "lat": -17.3855729,
        "lng": -66.1004555
    }
}, {
    "name": "Super Market America - Trojes, Cochabamba",
    "coords": {
        "lat": -17.3469114,
        "lng": -66.2003658
    }
}, {
    "name": "Farmacorp, Sucre, Cochabamba",
    "coords": {
        "lat": -17.3937609,
        "lng": -66.1541209
    }
}, {
    "name": "IGLESIA PENTECOSTAL UNIDA DE BOLIVIA VILLA ANIMAS, ANIMAS",
    "coords": {
        "lat": -17.3675951,
        "lng": -66.1018781
    }
}, {
    "name": "Universidad Católica Boliviana \"San Pablo\" - Cochabamba, Cochabamba",
    "coords": {
        "lat": -17.371812,
        "lng": -66.143635
    }
}, {
    "name": "Templo Masón, Avenida Ayacucho, Cochabamba",
    "coords": {
        "lat": -17.3917388,
        "lng": -66.1592167
    }
}, {
    "name": "Burger King, Avenida José Ballivian, Cochabamba",
    "coords": {
        "lat": -17.3833591,
        "lng": -66.1596344
    }
}, {
    "name": "Hotel Sucre, Avenida Aroma, Cochabamba",
    "coords": {
        "lat": -17.3997697,
        "lng": -66.15579450000001
    }
}, {
    "name": "《CONDOMINIO LA CASONA》, Cochabamba",
    "coords": {
        "lat": -17.364865,
        "lng": -66.1741512
    }
}, {
    "name": "Alfa y Omega, Cochabamba",
    "coords": {
        "lat": -17.414177,
        "lng": -66.1566817
    }
}, {
    "name": "Fundación Sedes Sapientiae, Avenida América, Cochabamba",
    "coords": {
        "lat": -17.3733046,
        "lng": -66.142298
    }
}, {
    "name": "IMCRUZ SERVICIO TECNICO TALLER TADEO AHENKE, Cochabamba",
    "coords": {
        "lat": -17.382823,
        "lng": -66.17522300000002
    }
}, {
    "name": "Automovil Club Boliviano, Lola Taborga de Requena, Cochabamba",
    "coords": {
        "lat": -17.3760712,
        "lng": -66.1772247
    }
}, {
    "name": "Casa Comunal Mayorazgo, Jamank'aya, Cochabamba",
    "coords": {
        "lat": -17.3588642,
        "lng": -66.1719687
    }
}, {
    "name": "AMERICAN PRINTER S.R.L, Cochabamba",
    "coords": {
        "lat": -17.3681979,
        "lng": -66.1418102
    }
}, {
    "name": "Imprenta Bolivar, Bolivar, Cochabamba",
    "coords": {
        "lat": -17.3926084,
        "lng": -66.15353069999999
    }
}, {
    "name": "ES Colomi, Colomi",
    "coords": {
        "lat": -17.3337431,
        "lng": -65.8685605
    }
}, {
    "name": "Tunari National Park",
    "coords": {
        "lat": -17.2479728,
        "lng": -66.3336757
    }
}, {
    "name": "Taller Expres De Imcruz, Jaime Canelas, Cochabamba",
    "coords": {
        "lat": -17.3728879,
        "lng": -66.1663449
    }
}, {
    "name": "Escuela De Aviacion DELTA CHARLIE, Cochabamba",
    "coords": {
        "lat": -17.4136457,
        "lng": -66.1748633
    }
}, {
    "name": "Iglesia Asamblea de Dios M.E.M. Sacaba Central, Sacaba",
    "coords": {
        "lat": -17.4040772,
        "lng": -66.0263578
    }
}, {
    "name": "IMBA, Barrancas, Cochabamba",
    "coords": {
        "lat": -17.421014,
        "lng": -66.1302348
    }
}, {
    "name": "VidaVet, Cochabamba",
    "coords": {
        "lat": -17.378407,
        "lng": -66.173827
    }
}, {
    "name": "Facultad de veterinaria UMSS, Quillacollo",
    "coords": {
        "lat": -17.3805527,
        "lng": -66.2891439
    }
}, {
    "name": "Villa Pagador, Avenida Humberto Asin Rivero, Cochabamba",
    "coords": {
        "lat": -17.4395347,
        "lng": -66.1164009
    }
}, {
    "name": "Globos, Avenida Pando, Cochabamba",
    "coords": {
        "lat": -17.3765121,
        "lng": -66.15100439999999
    }
}, {
    "name": "Cajero Automático Banco Económico, Nataniel Aguirre, Cochabamba",
    "coords": {
        "lat": -17.3961721,
        "lng": -66.1570201
    }
}, {
    "name": "Templo de la Angostura",
    "coords": {
        "lat": -17.5346748,
        "lng": -66.0792148
    }
}, {
    "name": "UNICEN (TORRE DE SALUD), Avenida Juan de La Rosa, Cochabamba",
    "coords": {
        "lat": -17.3784396,
        "lng": -66.16291079999999
    }
}, {
    "name": "Novo Garage, Cochabamba",
    "coords": {
        "lat": -17.362861,
        "lng": -66.18106399999999
    }
}, {
    "name": "Centro De Salud El Abra",
    "coords": {
        "lat": -17.4075752,
        "lng": -66.08748369999999
    }
}, {
    "name": "BancoSol, ATM Colcapirhua, Avenida C. Blanco Galindo, Colcapirhua Municipality",
    "coords": {
        "lat": -17.390984,
        "lng": -66.238151
    }
}, {
    "name": "BAR POLIGONO, Avenida Oquendo, Cochabamba",
    "coords": {
        "lat": -17.3904033,
        "lng": -66.1502655
    }
}, {
    "name": "VETERINARIA LOS GUARDIANES, Cochabamba",
    "coords": {
        "lat": -17.365151,
        "lng": -66.153548
    }
}, {
    "name": "Orellana Arce Odontologia Especializada, Avenida Capitán Víctor Ustáriz, Cochabamba",
    "coords": {
        "lat": -17.3965144,
        "lng": -66.18794129999999
    }
}, {
    "name": "Centro de Salud El Paso",
    "coords": {
        "lat": -17.3418979,
        "lng": -66.26786249999999
    }
}, {
    "name": "Posgrado Agronomia U.M.S.S., Cochabamba",
    "coords": {
        "lat": -17.3430771,
        "lng": -66.1960816
    }
}, {
    "name": "Banco Mercantil Santa Cruz, Avenida América, Cochabamba",
    "coords": {
        "lat": -17.3727581,
        "lng": -66.1629791
    }
}, {
    "name": "Cancha Quintanilla Sud, Calle Joseph Maldonado",
    "coords": {
        "lat": -17.3920435,
        "lng": -66.11443179999999
    }
}, {
    "name": "Teleférico, Cochabamba",
    "coords": {
        "lat": -17.3890525,
        "lng": -66.14152849999999
    }
}, {
    "name": "Laguna la angostura Cochabamba, Angostura, Cochabamba",
    "coords": {
        "lat": -17.5302558,
        "lng": -66.0849909
    }
}, {
    "name": "Salón de Eventos \"Roma\", Santa Cruz, Colcapirhua Municipality",
    "coords": {
        "lat": -17.3901835,
        "lng": -66.24291830000001
    }
}, {
    "name": "Home Center Fácil, Avenida Uyuni, Cochabamba",
    "coords": {
        "lat": -17.3766273,
        "lng": -66.1448327
    }
}, {
    "name": "Urbanización Paraiso, Cochabamba",
    "coords": {
        "lat": -17.380835,
        "lng": -66.1300005
    }
}, {
    "name": "Seguro Social Universitario, Calle A. Melean, Cochabamba",
    "coords": {
        "lat": -17.3885919,
        "lng": -66.1479289
    }
}, {
    "name": "Bolivia Tv Regional Cochabamba, Cochabamba",
    "coords": {
        "lat": -17.3790537,
        "lng": -66.1557211
    }
}, {
    "name": "Pamela Loza Make up school, Pasos Kanki, Cochabamba Cercado",
    "coords": {
        "lat": -17.370039,
        "lng": -66.161157
    }
}, {
    "name": "Llauquenquiri, Quillacollo",
    "coords": {
        "lat": -17.3607053,
        "lng": -66.253321
    }
}, {
    "name": "Santa Lucia, Aniceto Padilla, Cochabamba",
    "coords": {
        "lat": -17.3782291,
        "lng": -66.1562837
    }
}, {
    "name": "Banco Union cajero automatico Avenida 6 de agosto, Avenida Barrientos, Cochabamba",
    "coords": {
        "lat": -17.4123036,
        "lng": -66.1532193
    }
}, {
    "name": "Fluiconst CBA, Antezana, Cochabamba",
    "coords": {
        "lat": -17.3847631,
        "lng": -66.15465019999999
    }
}, {
    "name": "SAN PEDRO DE AIQUILE AG.CENTRAL, Avenida 6 de Agosto, Cochabamba",
    "coords": {
        "lat": -17.4119146,
        "lng": -66.15295979999999
    }
}, {
    "name": "Iglesia Asamblea de Dios",
    "coords": {
        "lat": -17.4751581,
        "lng": -66.14778849999999
    }
}, {
    "name": "Parque Vial, Avenida Ramón Rivero, Cochabamba",
    "coords": {
        "lat": -17.3810618,
        "lng": -66.1550974
    }
}, {
    "name": "Quillacollo Stadium, Ruta Nacional 4, Quillacollo",
    "coords": {
        "lat": -17.3920968,
        "lng": -66.2751119
    }
}, {
    "name": "Country Club, Avenida Tunari, Cochabamba",
    "coords": {
        "lat": -17.4023709,
        "lng": -66.1281415
    }
}, {
    "name": "Laboratorio de Geotecnia de la Universidad Mayor de San Simón - GTUMSS, Cochabamba",
    "coords": {
        "lat": -17.4492293,
        "lng": -66.1431777
    }
}, {
    "name": "SOLO PASTAS ORIGINAL, Cochabamba",
    "coords": {
        "lat": -17.383856,
        "lng": -66.16474769999999
    }
}, {
    "name": "pedregal Park, Cochabamba",
    "coords": {
        "lat": -17.3702206,
        "lng": -66.1115585
    }
}, {
    "name": "Capresso Café, Quillacollo",
    "coords": {
        "lat": -17.3929555,
        "lng": -66.2732116
    }
}, {
    "name": "Centro de Salud Alalay, Avenida Siglo XX, Cochabamba",
    "coords": {
        "lat": -17.4218465,
        "lng": -66.1373729
    }
}, {
    "name": "Banco Union, Avenida José Ballivian, Cochabamba",
    "coords": {
        "lat": -17.3846572,
        "lng": -66.1584476
    }
}, {
    "name": "Veterinaria Cochabamba, Quillacollo",
    "coords": {
        "lat": -17.3936872,
        "lng": -66.2791037
    }
}, {
    "name": "PRADO, Avenida Heroínas, Cochabamba",
    "coords": {
        "lat": -17.3910979,
        "lng": -66.1523615
    }
}, {
    "name": "Iglesia Adventista, Cochabamba",
    "coords": {
        "lat": -17.3893968,
        "lng": -66.1885937
    }
}, {
    "name": "COMTECO MUYURINA, Calle J. C. Torrez, Cochabamba",
    "coords": {
        "lat": -17.3822079,
        "lng": -66.14356099999999
    }
}, {
    "name": "POLICIA BOLIVIANA OFICINA DE JEDECEV CBBA, Cochabamba",
    "coords": {
        "lat": -17.4060162,
        "lng": -66.1683157
    }
}, {
    "name": "BCP, Cochabamba",
    "coords": {
        "lat": -17.3734272,
        "lng": -66.14266510000002
    }
}, {
    "name": "CONSTRUCTORA BAPTISTA VALENCIA E HIJOS, Agustin Lopez, Cochabamba",
    "coords": {
        "lat": -17.4025437,
        "lng": -66.1566792
    }
}, {
    "name": "Complejo Santa Bárbara, Avenida Copacabana, Cochabamba",
    "coords": {
        "lat": -17.4256561,
        "lng": -66.1558203
    }
}, {
    "name": "Centro San Pedro Sigamos, Peru, Sacaba",
    "coords": {
        "lat": -17.4095219,
        "lng": -66.0377963
    }
}, {
    "name": "Univalle, Avenida Ayacucho, Cochabamba",
    "coords": {
        "lat": -17.3942928,
        "lng": -66.1586233
    }
}, {
    "name": "Banco Fie, Avenida 6 de Agosto, Quillacollo",
    "coords": {
        "lat": -17.3946388,
        "lng": -66.28050449999999
    }
}, {
    "name": "hopital bustillos, Quillacollo",
    "coords": {
        "lat": -17.394253,
        "lng": -66.2724183
    }
}, {
    "name": "Colegio Mayor Victor Ustariz, Tarata",
    "coords": {
        "lat": -17.6091383,
        "lng": -66.0255368
    }
}, {
    "name": "Avenida Circunvalacion 110, Cochabamba",
    "coords": {
        "lat": -17.3589601,
        "lng": -66.1732469
    }
}, {
    "name": "DUMBO, Avenida José Ballivian, Cochabamba",
    "coords": {
        "lat": -17.3875823,
        "lng": -66.156337
    }
}, {
    "name": "Tolata main square \"13 de Septiembre\", Tolata",
    "coords": {
        "lat": -17.5339949,
        "lng": -65.9629996
    }
}, {
    "name": "Instituto Tecnologico Cristo Rey, Cochabamba",
    "coords": {
        "lat": -17.3357911,
        "lng": -66.1850635
    }
}, {
    "name": "Club Deportivo Santo Domingo, Colon, Sacaba",
    "coords": {
        "lat": -17.4051003,
        "lng": -66.0342228
    }
}, {
    "name": "Avenida América 165, Cochabamba",
    "coords": {
        "lat": -17.3724346,
        "lng": -66.161281
    }
}, {
    "name": "Colegio America del Sur, Avenida Miraflores, Cochabamba",
    "coords": {
        "lat": -17.4222416,
        "lng": -66.13817999999999
    }
}, {
    "name": "Queru Queru, Cochabamba",
    "coords": {
        "lat": -17.3728999,
        "lng": -66.1569375
    }
}, {
    "name": "Banco de Crédito de Bolivia S.A., Cochabamba",
    "coords": {
        "lat": -17.3957611,
        "lng": -66.28137579999999
    }
}, {
    "name": "Semapa, Atahuallpa, Cochabamba",
    "coords": {
        "lat": -17.3641818,
        "lng": -66.1621634
    }
}, {
    "name": "Ecojet OPP, Calle 16 de Julio, Cochabamba",
    "coords": {
        "lat": -17.3841162,
        "lng": -66.1537641
    }
}, {
    "name": "Fe y Alegría, Avenida J.Manuel Villa Vicencio, Cochabamba",
    "coords": {
        "lat": -17.375126,
        "lng": -66.1926752
    }
}, {
    "name": "Terminal de Buses CARRASCO, Cochabamba",
    "coords": {
        "lat": -17.3987059,
        "lng": -66.14838879999999
    }
}, {
    "name": "SEGIP, Quillacollo",
    "coords": {
        "lat": -17.4079357,
        "lng": -66.28051789999999
    }
}, {
    "name": "Barba de Padilla, Jose de La Reza, Cochabamba",
    "coords": {
        "lat": -17.3869151,
        "lng": -66.1583508
    }
}, {
    "name": "La Chingada, Teofilo Vargas, Cochabamba",
    "coords": {
        "lat": -17.376027,
        "lng": -66.165883
    }
}, {
    "name": "Villa de Oropeza Ltda, Avenida 9 de Abril, Cochabamba",
    "coords": {
        "lat": -17.3985174,
        "lng": -66.1392832
    }
}, {
    "name": "Museo Casona Santivañez, Santivanez, Cochabamba",
    "coords": {
        "lat": -17.3946576,
        "lng": -66.159035
    }
}, {
    "name": "Balneario El Rayo, Quillacollo",
    "coords": {
        "lat": -17.3572566,
        "lng": -66.28188709999999
    }
}, {
    "name": "Departamento de Santa Cruz",
    "coords": {
        "lat": -16.7476037,
        "lng": -62.0750998
    }
}, {
    "name": "El Punto De Encuentro, Avenida Melchor Pérez de Olguín, Cochabamba",
    "coords": {
        "lat": -17.380131,
        "lng": -66.1763405
    }
}, {
    "name": "CHICHARRONERIA COCHABAMBA MUYURINA, Avenida Uyuni, Cochabamba",
    "coords": {
        "lat": -17.3764091,
        "lng": -66.1408818
    }
}, {
    "name": "Plazuela Cobija, Cochabamba",
    "coords": {
        "lat": -17.3904535,
        "lng": -66.1630741
    }
}, {
    "name": "Zen Garden, Tiquipaya",
    "coords": {
        "lat": -17.341803,
        "lng": -66.2132793
    }
}, {
    "name": "Pro Salud, Cochabamba",
    "coords": {
        "lat": -17.3947375,
        "lng": -66.1806603
    }
}, {
    "name": "Colegio Nacional Junin , Cochabamba - Bolivia, Cochabamba",
    "coords": {
        "lat": -17.3935605,
        "lng": -66.15350769999999
    }
}, {
    "name": "Mirador Alto Cochabamba, Cochabamba",
    "coords": {
        "lat": -17.4248272,
        "lng": -66.1455849
    }
}, {
    "name": "parque mariscal santa cruz, Cochabamba",
    "coords": {
        "lat": -17.4007367,
        "lng": -66.1738373
    }
}, {
    "name": "iglesia divino niño, Cochabamba",
    "coords": {
        "lat": -17.4527482,
        "lng": -66.2042962
    }
}, {
    "name": "Carpintería UMSS, Calle Julián María López, Cochabamba",
    "coords": {
        "lat": -17.3949059,
        "lng": -66.14535839999999
    }
}, {
    "name": "Prosalud, Cochabamba",
    "coords": {
        "lat": -17.3947875,
        "lng": -66.1806247
    }
}, {
    "name": "ES El Manantial IV -GNV, Cochabamba",
    "coords": {
        "lat": -17.3718681,
        "lng": -66.16930719999999
    }
}, {
    "name": "Andres Manuel Del Rio 27, Cochabamba",
    "coords": {
        "lat": -17.3954743,
        "lng": -66.1910918
    }
}, {
    "name": "Ayacucho educational unit, Cochabamba",
    "coords": {
        "lat": -17.3650106,
        "lng": -66.1287956
    }
}, {
    "name": "Farmacia Cochabamba, Avenida Heroínas, Cochabamba",
    "coords": {
        "lat": -17.3924954,
        "lng": -66.158846
    }
}, {
    "name": "Residencial Velia Victoria, Av Portales, Cochabamba",
    "coords": {
        "lat": -17.375044,
        "lng": -66.15637029999999
    }
}, {
    "name": "TOTTO PDV Galeria Cervantes, Cochabamba",
    "coords": {
        "lat": -17.3956792,
        "lng": -66.1560326
    }
}, {
    "name": "Mirador Alto Cochabamba, Avenida República de Suecia, Cochabamba",
    "coords": {
        "lat": -17.4197097,
        "lng": -66.1446204
    }
}, {
    "name": "Ushpa Ushpa",
    "coords": {
        "lat": -17.466667,
        "lng": -66.1
    }
}, {
    "name": "15 De Agosto 2039, Cochabamba",
    "coords": {
        "lat": -17.3871939,
        "lng": -66.178034
    }
}, {
    "name": "UPAL, Tupac Amaru, Cochabamba",
    "coords": {
        "lat": -17.369495,
        "lng": -66.160116
    }
}, {
    "name": "Plaza De Las Sirenas, Quillacollo",
    "coords": {
        "lat": -17.4016486,
        "lng": -66.28163169999999
    }
}, {
    "name": "Kinder Tía Kika, Cochabamba",
    "coords": {
        "lat": -17.3705362,
        "lng": -66.1420143
    }
}, {
    "name": "Chillimarca, Av.Chilimarca, Cochabamba",
    "coords": {
        "lat": -17.3449669,
        "lng": -66.20479209999999
    }
}, {
    "name": "PARE DE SUFRIR, O. Higgins, Cochabamba",
    "coords": {
        "lat": -17.383623,
        "lng": -66.1599389
    }
}, {
    "name": "Felicidad Anita, Quillacollo",
    "coords": {
        "lat": -17.4042461,
        "lng": -66.2770669
    }
}, {
    "name": "Ecojet Mantenimiento, Cochabamba",
    "coords": {
        "lat": -17.4177941,
        "lng": -66.1713457
    }
}, {
    "name": "Municipality of Sacaba, Colon, Sacaba",
    "coords": {
        "lat": -17.4038769,
        "lng": -66.0395801
    }
}, {
    "name": "Rellenos calama sucursal prado, Cochabamba",
    "coords": {
        "lat": -17.3839239,
        "lng": -66.1582947
    }
}, {
    "name": "Cooperativa San Pedro, Calle A. Melean, Cochabamba",
    "coords": {
        "lat": -17.3924833,
        "lng": -66.1473204
    }
}, {
    "name": "Muyurina, Cochabamba",
    "coords": {
        "lat": -17.3825056,
        "lng": -66.145988
    }
}, {
    "name": "Villa Granado, Cochabamba",
    "coords": {
        "lat": -17.3761137,
        "lng": -66.185908
    }
}, {
    "name": "Americana Hotel, Esteban Arce esquina Aroma, Cochabamba",
    "coords": {
        "lat": -17.3992212,
        "lng": -66.1554381
    }
}, {
    "name": "Colegio Gerardo Vargas Vidal, Alalay",
    "coords": {
        "lat": -17.4399966,
        "lng": -66.1284471
    }
}, {
    "name": "Parqueo Lanza, Cochabamba",
    "coords": {
        "lat": -17.3966307,
        "lng": -66.15257319999999
    }
}, {
    "name": "CBN SALA DE VENTAS, Avenida Sumaj Llajta, Cochabamba",
    "coords": {
        "lat": -17.3607773,
        "lng": -66.1818485
    }
}, {
    "name": "SEMINARIO SETEP, Avenida Chiquicollo, Cochabamba",
    "coords": {
        "lat": -17.3676575,
        "lng": -66.1941719
    }
}, {
    "name": "Colegio Franklin Anaya, Quillacollo",
    "coords": {
        "lat": -17.3936687,
        "lng": -66.2706846
    }
}, {
    "name": "Mercado Campesino Del Tropico",
    "coords": {
        "lat": -17.3768452,
        "lng": -66.1126579
    }
}, {
    "name": "Retaurant Bella Vista, Quillacollo",
    "coords": {
        "lat": -17.3214999,
        "lng": -66.2822809
    }
}, {
    "name": "Inspectoría Salesiana \"Nuestra Señora de Copacabana\", Cochabamba",
    "coords": {
        "lat": -17.370315,
        "lng": -66.18951799999999
    }
}, {
    "name": "BNB Agencia Ayacucho, Cochabamba",
    "coords": {
        "lat": -17.3956139,
        "lng": -66.1582296
    }
}, {
    "name": "Quilla, Litoral, Quillacollo",
    "coords": {
        "lat": -17.3920366,
        "lng": -66.2751424
    }
}, {
    "name": "UDABOL, Avenida Villazon",
    "coords": {
        "lat": -17.390793,
        "lng": -66.06906090000001
    }
}, {
    "name": "ALASKA SRL, Colcapirhua Municipality",
    "coords": {
        "lat": -17.367539,
        "lng": -66.2282026
    }
}, {
    "name": "Botella De Pepsi",
    "coords": {
        "lat": -17.388499,
        "lng": -66.085938
    }
}, {
    "name": "Piscina Olimpica Cochabamba, Cochabamba",
    "coords": {
        "lat": -17.4010791,
        "lng": -66.1739273
    }
}, {
    "name": "AMERICAN IRIS PAPER COMPANY, Colcapirhua Municipality",
    "coords": {
        "lat": -17.394545,
        "lng": -66.23584269999999
    }
}, {
    "name": "Posgrado FCE - UMSS, La Paz, Cochabamba",
    "coords": {
        "lat": -17.3830955,
        "lng": -66.1541403
    }
}, {
    "name": "FELCC Quillacollo, Cochabamba",
    "coords": {
        "lat": -17.3968803,
        "lng": -66.2817089
    }
}, {
    "name": "valle hermoso, Cochabamba",
    "coords": {
        "lat": -17.4454973,
        "lng": -66.1224648
    }
}, {
    "name": "COMTECO, Huanchaca, Cochabamba",
    "coords": {
        "lat": -17.4195962,
        "lng": -66.1287904
    }
}, {
    "name": "El Portal, Cochabamba",
    "coords": {
        "lat": -17.369171,
        "lng": -66.168095
    }
}, {
    "name": "Alojamiento San Carlos, Av. República, Cochabamba",
    "coords": {
        "lat": -17.4006843,
        "lng": -66.1511257
    }
}, {
    "name": "Granja Ecológica \"Polen\", Quillacollo",
    "coords": {
        "lat": -17.3366603,
        "lng": -66.2384058
    }
}, {
    "name": "Fuerza Especial de Lucha Contra el Crimen, Cochabamba",
    "coords": {
        "lat": -17.4011396,
        "lng": -66.1460786
    }
}, {
    "name": "Avenida Tadeo Haenke 111, Cochabamba",
    "coords": {
        "lat": -17.3828421,
        "lng": -66.18973489999999
    }
}, {
    "name": "Clinica San Pedro, Calle A. Melean, Cochabamba",
    "coords": {
        "lat": -17.3910093,
        "lng": -66.1477673
    }
}, {
    "name": "Caja Nacional De Salud, Avenida Avaroa, Quillacollo",
    "coords": {
        "lat": -17.3987849,
        "lng": -66.2819485
    }
}, {
    "name": "Condominio Ferrara, Avenida América, Cochabamba",
    "coords": {
        "lat": -17.3739177,
        "lng": -66.14543549999999
    }
}, {
    "name": "Tolata",
    "coords": {
        "lat": -17.5296377,
        "lng": -65.9660658
    }
}, {
    "name": "Banco Bisa, Nataniel Aguirre, Cochabamba",
    "coords": {
        "lat": -17.3959896,
        "lng": -66.1571876
    }
}, {
    "name": "Albarrancho, Colcapirhua Municipality",
    "coords": {
        "lat": -17.4364291,
        "lng": -66.2337422
    }
}, {
    "name": "UPS Cochabamba, Mariano Baptista, Cochabamba",
    "coords": {
        "lat": -17.3857694,
        "lng": -66.1590645
    }
}, {
    "name": "Instituto Inap, Jordan, Cochabamba",
    "coords": {
        "lat": -17.3944094,
        "lng": -66.1514711
    }
}, {
    "name": "Los sauces, Cochabamba",
    "coords": {
        "lat": -17.3726237,
        "lng": -66.1652759
    }
}, {
    "name": "Los Andes Banca PyME BMSC - Cajero Automático La Cancha, Cochabamba",
    "coords": {
        "lat": -17.405026,
        "lng": -66.15565
    }
}, {
    "name": "Segip Colcapirhua - Licencias de Conducir, Pantaleón Dalence, Colcapirhua Municipality",
    "coords": {
        "lat": -17.3879361,
        "lng": -66.2177643
    }
}, {
    "name": "Colegio Eusebio Tudela Tapia, Camino a Itocta, Cochabamba",
    "coords": {
        "lat": -17.4527335,
        "lng": -66.2028136
    }
}, {
    "name": "ES Terminal de Buses Cochabamba, Avenida Ayacucho, Cochabamba",
    "coords": {
        "lat": -17.4037336,
        "lng": -66.1574212
    }
}, {
    "name": "Epi Norte, Cala Cala, Cochabamba",
    "coords": {
        "lat": -17.3621511,
        "lng": -66.1730237
    }
}, {
    "name": "Centro de Salud Callajchullpa",
    "coords": {
        "lat": -17.3534558,
        "lng": -66.2431987
    }
}, {
    "name": "Ciudad Del Nino, Cochabamba",
    "coords": {
        "lat": -17.334766,
        "lng": -66.195069
    }
}, {
    "name": "Clínica Los Olivos, Avenida Melchor Perez de Olguin, Cochabamba",
    "coords": {
        "lat": -17.3896083,
        "lng": -66.1797307
    }
}, {
    "name": "Banco Prodem S.A, - Agencia La Cancha, Cochabamba",
    "coords": {
        "lat": -17.4053972,
        "lng": -66.155591
    }
}, {
    "name": "Hughes Schools",
    "coords": {
        "lat": -17.3844825,
        "lng": -66.0896087
    }
}, {
    "name": "Talleres Villavicencio, 23 De Marzo, Cochabamba",
    "coords": {
        "lat": -17.3893235,
        "lng": -66.1847956
    }
}, {
    "name": "National Bank of Bolivia Central Office, Nataniel Aguirre, Cochabamba",
    "coords": {
        "lat": -17.3956369,
        "lng": -66.15728179999999
    }
}, {
    "name": "Crucero, Cochabamba",
    "coords": {
        "lat": -17.3966433,
        "lng": -66.1587171
    }
}, {
    "name": "Piscina Las Rocas, Ruta Nacional 4, Cochabamba",
    "coords": {
        "lat": -17.386601,
        "lng": -66.0975879
    }
}, {
    "name": "muyurina edificio santa maria, Avenida Oquendo, Cochabamba",
    "coords": {
        "lat": -17.3868833,
        "lng": -66.1507149
    }
}, {
    "name": "Ayopaya, Rico Toro, Quillacollo",
    "coords": {
        "lat": -17.3871375,
        "lng": -66.28475180000001
    }
}, {
    "name": "Avenida Heroínas 270, Cochabamba",
    "coords": {
        "lat": -17.3924283,
        "lng": -66.1570287
    }
}, {
    "name": "Comercial Beni, Beni, Cochabamba",
    "coords": {
        "lat": -17.376983,
        "lng": -66.15858399999999
    }
}, {
    "name": "Local Doña Nieves, Cochabamba",
    "coords": {
        "lat": -17.3859549,
        "lng": -66.1899931
    }
}, {
    "name": "COLEGIO \"REPUBLICA DEL ECUADOR \"",
    "coords": {
        "lat": -17.4136066,
        "lng": -66.0944303
    }
}, {
    "name": "Laboratorio Bagó, Manuel Carrasco Jimenes, Cochabamba",
    "coords": {
        "lat": -17.3601674,
        "lng": -66.174399
    }
}, {
    "name": "Almanza, Avenida Melchor Pérez de Olguín, Cochabamba",
    "coords": {
        "lat": -17.3883127,
        "lng": -66.1802013
    }
}, {
    "name": "FUBODE AG. LORETO, Avenida Panamericana, Cochabamba",
    "coords": {
        "lat": -17.4179327,
        "lng": -66.1575178
    }
}, {
    "name": "Nickilandia, Fco Viedma, Cochabamba",
    "coords": {
        "lat": -17.39233,
        "lng": -66.1685447
    }
}, {
    "name": "Bolivia, Cochabamba, La Chimba Subsidiary",
    "coords": {
        "lat": -17.396975,
        "lng": -66.184758
    }
}, {
    "name": "Estadium Villa Sebastian Pagador, Cochabamba",
    "coords": {
        "lat": -17.440056,
        "lng": -66.118957
    }
}, {
    "name": "Textiles Ulala, Alalay",
    "coords": {
        "lat": -17.4338292,
        "lng": -66.12086339999999
    }
}, {
    "name": "Cancha De Basquet D Villa Granado, Cochabamba",
    "coords": {
        "lat": -17.3748713,
        "lng": -66.1882
    }
}, {
    "name": "Funeraria La Capilla, Cochabamba",
    "coords": {
        "lat": -17.3690757,
        "lng": -66.15922809999999
    }
}, {
    "name": "La Recoleta Barber Shop, Cochabamba",
    "coords": {
        "lat": -17.3782614,
        "lng": -66.1541725
    }
}, {
    "name": "Chicharronería Doña Arminda, Thomas Bata, Quillacollo",
    "coords": {
        "lat": -17.4088063,
        "lng": -66.2960744
    }
}, {
    "name": "Hotel Camino Plaza, Cochabamba",
    "coords": {
        "lat": -17.3686825,
        "lng": -66.163415
    }
}, {
    "name": "BOA, Cochabamba",
    "coords": {
        "lat": -17.3715819,
        "lng": -66.1741435
    }
}, {
    "name": "BOLIVIA TV, Barrancas, Cochabamba",
    "coords": {
        "lat": -17.4195552,
        "lng": -66.1305043
    }
}, {
    "name": "La Riviera, Avenida D'Orbigny, Cochabamba",
    "coords": {
        "lat": -17.3887728,
        "lng": -66.18008999999999
    }
}, {
    "name": "Instituto Americano, Potosi, Cochabamba",
    "coords": {
        "lat": -17.368032,
        "lng": -66.15453959999999
    }
}, {
    "name": "Centro de Salud Sebastian Pagador",
    "coords": {
        "lat": -17.4417575,
        "lng": -66.1163315
    }
}, {
    "name": "Tito's Place, Cochabamba",
    "coords": {
        "lat": -17.3543352,
        "lng": -66.19987429999999
    }
}, {
    "name": "Alalay Driving Golf, Cochabamba",
    "coords": {
        "lat": -17.4148904,
        "lng": -66.126768
    }
}, {
    "name": "Centro de Salud Alto Cochabamba, 17 de Octubre, Cochabamba",
    "coords": {
        "lat": -17.4246866,
        "lng": -66.1491296
    }
}, {
    "name": "Colombianwear, Calle B. Colorados, Cochabamba",
    "coords": {
        "lat": -17.378526,
        "lng": -66.168643
    }
}, {
    "name": "Edificio Colón, Avenida José Ballivian, Cochabamba",
    "coords": {
        "lat": -17.38735,
        "lng": -66.15637319999999
    }
}, {
    "name": "Univalle América, Avenida América, Cochabamba",
    "coords": {
        "lat": -17.3724109,
        "lng": -66.1610996
    }
}, {
    "name": "funeraria Los Olivos, Calancha, Cochabamba",
    "coords": {
        "lat": -17.3826872,
        "lng": -66.165883
    }
}, {
    "name": "América Melchor perez de Holguin, Avenida Melchor Pérez de Olguín, Cochabamba",
    "coords": {
        "lat": -17.3715995,
        "lng": -66.1759034
    }
}, {
    "name": "Cancha Maracana Molle Molle, Cochabamba",
    "coords": {
        "lat": -17.4551844,
        "lng": -66.15688829999999
    }
}, {
    "name": "Cerro Verde Central Market, Utama, Cochabamba",
    "coords": {
        "lat": -17.4143912,
        "lng": -66.144295
    }
}, {
    "name": "centro de salud payacollo, Quillacollo",
    "coords": {
        "lat": -17.4312245,
        "lng": -66.3368996
    }
}, {
    "name": "Urbanización El Castillo De San Pedro, Ruta Nacional 4, Cochabamba",
    "coords": {
        "lat": -17.3808049,
        "lng": -66.1235011
    }
}, {
    "name": "Policia Transito, Quillacollo, Cochabamba",
    "coords": {
        "lat": -17.4079689,
        "lng": -66.2800755
    }
}, {
    "name": "Banco Mercantil Santa Cruz, Cochabamba",
    "coords": {
        "lat": -17.4142064,
        "lng": -66.1787113
    }
}, {
    "name": "Palacio del Silpancho, Mariano Baptista, Cochabamba",
    "coords": {
        "lat": -17.3888054,
        "lng": -66.1583892
    }
}, {
    "name": "Los Andes Banca PyME BMSC, Cochabamba",
    "coords": {
        "lat": -17.392872,
        "lng": -66.158898
    }
}, {
    "name": "Las Cuadras, Cochabamba",
    "coords": {
        "lat": -17.3970998,
        "lng": -66.14545389999999
    }
}, {
    "name": "BoA Cargo, Avenida Guillermo Killman, Cochabamba",
    "coords": {
        "lat": -17.4102721,
        "lng": -66.1725419
    }
}, {
    "name": "Mercado 10 de Febrero",
    "coords": {
        "lat": -17.440043,
        "lng": -66.1163047
    }
}, {
    "name": "Restaurant El Manantial del Castillo, Ingavi, Sacaba",
    "coords": {
        "lat": -17.4023143,
        "lng": -66.0514421
    }
}, {
    "name": "Ecuador 0489, Cochabamba",
    "coords": {
        "lat": -17.3911031,
        "lng": -66.1633006
    }
}, {
    "name": "Centro De Nutrición Infantil Cerro Verde - Fundación Abina R. Patiño., Cochabamba",
    "coords": {
        "lat": -17.4164506,
        "lng": -66.14791290000001
    }
}, {
    "name": "Parque Kanata, Cochabamba",
    "coords": {
        "lat": -17.4128145,
        "lng": -66.158299
    }
}, {
    "name": "EMIAS SRL, Avenida Ayacucho, Cochabamba",
    "coords": {
        "lat": -17.3964256,
        "lng": -66.1583265
    }
}, {
    "name": "Colegio Andres Bello, Avenida República, Cochabamba",
    "coords": {
        "lat": -17.4159337,
        "lng": -66.15141899999999
    }
}, {
    "name": "Felcc, Cochabamba",
    "coords": {
        "lat": -17.4009921,
        "lng": -66.14603029999999
    }
}, {
    "name": "Banco Ganadero, Avenida Ayacucho, Cochabamba",
    "coords": {
        "lat": -17.393557,
        "lng": -66.1586756
    }
}, {
    "name": "Comuna Itocta, Avenida DE LOS DERECHOS HUMANOS, Cochabamba",
    "coords": {
        "lat": -17.4471208,
        "lng": -66.14110710000001
    }
}, {
    "name": "Esteban Arce Y Punata, Punata",
    "coords": {
        "lat": -17.4022682,
        "lng": -66.1549782
    }
}, {
    "name": "Sarco, Cochabamba",
    "coords": {
        "lat": -17.3668019,
        "lng": -66.1987138
    }
}, {
    "name": "CIDRE, Cochabamba",
    "coords": {
        "lat": -17.3845609,
        "lng": -66.146377
    }
}, {
    "name": "Iglesia Evangélica Pentecostal de Bolivia - Villa S. Pagador, Avenida Humberto Asin Rivero, Cochabamba",
    "coords": {
        "lat": -17.4398271,
        "lng": -66.11725620000001
    }
}, {
    "name": "Concordia - Casa De Funerales, Avenida Martín de la Rocha, Cochabamba",
    "coords": {
        "lat": -17.3826878,
        "lng": -66.1664493
    }
}, {
    "name": "Mediterraneo II, Chipaya, Cochabamba",
    "coords": {
        "lat": -17.3743912,
        "lng": -66.1844716
    }
}, {
    "name": "Trans Copacabana 1 MEM, Cochabamba",
    "coords": {
        "lat": -17.3892719,
        "lng": -66.183138
    }
}, {
    "name": "Los Incas, Cochabamba",
    "coords": {
        "lat": -17.4063441,
        "lng": -66.1657871
    }
}, {
    "name": "Asociación de Scouts de Bolivia, Litoral, Cochabamba",
    "coords": {
        "lat": -17.4000438,
        "lng": -66.14050379999999
    }
}, {
    "name": "Cachito, Avenida Perú, Cochabamba",
    "coords": {
        "lat": -17.385811,
        "lng": -66.17001359999999
    }
}, {
    "name": "25 de Mayo 0365, Cochabamba",
    "coords": {
        "lat": -17.389211,
        "lng": -66.15651489999999
    }
}, {
    "name": "Tuscapujio Centro-lava Lava,Sacaba, Sacaba",
    "coords": {
        "lat": -17.421147,
        "lng": -66.0587257
    }
}, {
    "name": "Manchester Sport Bar, 16 de Julio, Cochabamba",
    "coords": {
        "lat": -17.3818227,
        "lng": -66.1549553
    }
}, {
    "name": "Normal SIMON RODRIGUEZ Quillacollo, Quillacollo",
    "coords": {
        "lat": -17.3632186,
        "lng": -66.2966886
    }
}, {
    "name": "Hospital Harry Williams, Avenida de Los Derechos Humanos, Cochabamba",
    "coords": {
        "lat": -17.419851,
        "lng": -66.1468246
    }
}, {
    "name": "Cancha De Arena - Parque Salomon Klein, Cochabamba",
    "coords": {
        "lat": -17.3739657,
        "lng": -66.1721064
    }
}, {
    "name": "PLASTIFORTE, Santiváñez",
    "coords": {
        "lat": -17.5574636,
        "lng": -66.2523111
    }
}, {
    "name": "Surtidor Chiñata, Catachilla",
    "coords": {
        "lat": -17.4075835,
        "lng": -65.9991592
    }
}, {
    "name": "Roca De Vidrio Lux Otb, Cochabamba",
    "coords": {
        "lat": -17.3492722,
        "lng": -66.1758645
    }
}, {
    "name": "ES Automovil Club Boliviano, Francisco Pizarro, Cochabamba",
    "coords": {
        "lat": -17.3933994,
        "lng": -66.17415319999999
    }
}, {
    "name": "Charques, Luis Espinal, Cochabamba",
    "coords": {
        "lat": -17.3487349,
        "lng": -66.1687027
    }
}, {
    "name": "EMI, Calle J. Aguayo, Cochabamba",
    "coords": {
        "lat": -17.3780145,
        "lng": -66.17230839999999
    }
}, {
    "name": "Santo Domingo Savio, Cochabamba",
    "coords": {
        "lat": -17.4211293,
        "lng": -66.1590014
    }
}, {
    "name": "Mercado Loreto, Cochabamba",
    "coords": {
        "lat": -17.4233377,
        "lng": -66.1572008
    }
}, {
    "name": "San Benito",
    "coords": {
        "lat": -17.5149607,
        "lng": -65.89471069999999
    }
}, {
    "name": "Edificio San Simon, Cochabamba",
    "coords": {
        "lat": -17.3890729,
        "lng": -66.15293129999999
    }
}, {
    "name": "Farmacorp, Quillacollo",
    "coords": {
        "lat": -17.3941019,
        "lng": -66.27827529999999
    }
}, {
    "name": "Laguna Eventos y naturaleza, Tiquipaya",
    "coords": {
        "lat": -17.3626373,
        "lng": -66.2109522
    }
}, {
    "name": "Escuela Heroinas, Ayacucho, Quillacollo",
    "coords": {
        "lat": -17.4003749,
        "lng": -66.27928709999999
    }
}, {
    "name": "El Castillo",
    "coords": {
        "lat": -17.3829345,
        "lng": -66.1209369
    }
}, {
    "name": "Oblitas Park, Cochabamba",
    "coords": {
        "lat": -17.3806333,
        "lng": -66.1587339
    }
}, {
    "name": "Charque, Cochabamba",
    "coords": {
        "lat": -17.384786,
        "lng": -66.161446
    }
}, {
    "name": "ES Las Islas, Avenida C. Blanco Galindo, Cochabamba",
    "coords": {
        "lat": -17.3918833,
        "lng": -66.2087904
    }
}, {
    "name": "Plaza 6 De Agosto, Quillacollo",
    "coords": {
        "lat": -17.3973893,
        "lng": -66.2807174
    }
}, {
    "name": "Galeria La Merced, Calle Esteban Arze, Cochabamba",
    "coords": {
        "lat": -17.4044588,
        "lng": -66.1558683
    }
}, {
    "name": "Antezana, Avenida Santa Cruz, Cochabamba",
    "coords": {
        "lat": -17.3807403,
        "lng": -66.1570029
    }
}, {
    "name": "Private Technical University Cosmos UNITEPC, Avenida Cuarta, Cochabamba",
    "coords": {
        "lat": -17.3930336,
        "lng": -66.2006833
    }
}, {
    "name": "Optica Buena Vista, Cochabamba",
    "coords": {
        "lat": -17.3917774,
        "lng": -66.1547052
    }
}, {
    "name": "ELFEC, Cochabamba",
    "coords": {
        "lat": -17.393382,
        "lng": -66.16416439999999
    }
}, {
    "name": "Plaza De Comidas Sacaba, Benemeritos de la Patria, Sacaba",
    "coords": {
        "lat": -17.4020888,
        "lng": -66.03974269999999
    }
}, {
    "name": "Banco Unión - Sucursal Av. República, Cochabamba",
    "coords": {
        "lat": -17.4104439,
        "lng": -66.1511479
    }
}, {
    "name": "Homero, Cochabamba",
    "coords": {
        "lat": -17.3581842,
        "lng": -66.1579789
    }
}, {
    "name": "Avenida Gualberto Villarroel 1011, Cochabamba",
    "coords": {
        "lat": -17.3800204,
        "lng": -66.1593925
    }
}, {
    "name": "Imcruz, Avenida Libertador Simón Bolívar, Cochabamba",
    "coords": {
        "lat": -17.3727821,
        "lng": -66.1623941
    }
}, {
    "name": "Plazuela Quintanilla, Cochabamba",
    "coords": {
        "lat": -17.3821388,
        "lng": -66.151844
    }
}, {
    "name": "Banco Bisa, Tarata, Cochabamba",
    "coords": {
        "lat": -17.4040449,
        "lng": -66.1576741
    }
}, {
    "name": "Restaurant LOS SAUCES, Quillacollo",
    "coords": {
        "lat": -17.3949617,
        "lng": -66.2895127
    }
}, {
    "name": "Inspectoría salesiana, Eduardo, Cochabamba",
    "coords": {
        "lat": -17.3703055,
        "lng": -66.18954719999999
    }
}, {
    "name": "Prado, Avenida José Ballivian (El Prado), Cochabamba",
    "coords": {
        "lat": -17.3874398,
        "lng": -66.15651489999999
    }
}, {
    "name": "Villa Marquina, Quillacollo",
    "coords": {
        "lat": -17.3382826,
        "lng": -66.28793759999999
    }
}, {
    "name": "Molino de Oro, Quillacollo",
    "coords": {
        "lat": -17.3971698,
        "lng": -66.2821738
    }
}, {
    "name": "Cercado",
    "coords": {
        "lat": -17.3697351,
        "lng": -66.1653224
    }
}, {
    "name": "Q'Barato - El Bosque, Cochabamba",
    "coords": {
        "lat": -17.3405792,
        "lng": -66.1837381
    }
}, {
    "name": "Libreria, Trabajos En Goma Eva., Cochabamba",
    "coords": {
        "lat": -17.3768778,
        "lng": -66.1193782
    }
}, {
    "name": "Axs, Avenida Ayacucho, Cochabamba",
    "coords": {
        "lat": -17.3899378,
        "lng": -66.1592684
    }
}, {
    "name": "SEMAPA, Cochabamba",
    "coords": {
        "lat": -17.4325296,
        "lng": -66.19730009999999
    }
}, {
    "name": "Kinder Melchor Urquidi, Cochabamba",
    "coords": {
        "lat": -17.3999321,
        "lng": -66.15639569999999
    }
}, {
    "name": "Parque Demetrio Canelas, Cochabamba",
    "coords": {
        "lat": -17.3802673,
        "lng": -66.1683944
    }
}, {
    "name": "Tigo Money Correo, Avenida Heroínas, Cochabamba",
    "coords": {
        "lat": -17.392865,
        "lng": -66.1590051
    }
}, {
    "name": "Panchita, Cochabamba",
    "coords": {
        "lat": -17.3754472,
        "lng": -66.1505799
    }
}, {
    "name": "Centro de Salud Jaihuayco, Chimoré",
    "coords": {
        "lat": -17.4166539,
        "lng": -66.16687879999999
    }
}, {
    "name": "DIRCABI Cbba., J.Capriles, Cochabamba",
    "coords": {
        "lat": -17.3718225,
        "lng": -66.1617924
    }
}, {
    "name": "Optica Salamanca, Cochabamba",
    "coords": {
        "lat": -17.391709,
        "lng": -66.154498
    }
}, {
    "name": "6 de Agosto, San Mateo, Cochabamba",
    "coords": {
        "lat": -17.4396592,
        "lng": -66.1610949
    }
}, {
    "name": "guarderia ejercito de salvacion, Cochabamba",
    "coords": {
        "lat": -17.3962753,
        "lng": -66.1524827
    }
}, {
    "name": "COSSMIL, Avenida Ramón Rivero, Cochabamba",
    "coords": {
        "lat": -17.3794453,
        "lng": -66.1449208
    }
}, {
    "name": "Palacio Portales de Bolivia, Potosi, Cochabamba",
    "coords": {
        "lat": -17.374943,
        "lng": -66.15281999999999
    }
}, {
    "name": "Impuestos nacionales, Cochabamba",
    "coords": {
        "lat": -17.3953058,
        "lng": -66.1566488
    }
}, {
    "name": "Mega Mundo, Cochabamba",
    "coords": {
        "lat": -17.386027,
        "lng": -66.1912289
    }
}, {
    "name": "Chicken's Kingdom, Avenida Gualberto Villarroel, Cochabamba",
    "coords": {
        "lat": -17.3787442,
        "lng": -66.1592405
    }
}, {
    "name": "COMBASE, Haiti, Cochabamba",
    "coords": {
        "lat": -17.3988757,
        "lng": -66.1420888
    }
}, {
    "name": "Centro de Salud Chavez Rancho, Avenida C. Blanco Galindo, Cochabamba",
    "coords": {
        "lat": -17.3949219,
        "lng": -66.1903672
    }
}, {
    "name": "Potosi 111, Cochabamba",
    "coords": {
        "lat": -17.3708233,
        "lng": -66.1534716
    }
}, {
    "name": "E.S. D'orbigni, Cochabamba",
    "coords": {
        "lat": -17.387652,
        "lng": -66.1673431
    }
}, {
    "name": "Automóvil Club Boliviano (Sede Zona Sur), Cochabamba",
    "coords": {
        "lat": -17.4236812,
        "lng": -66.135217
    }
}, {
    "name": "Cobija, Cochabamba",
    "coords": {
        "lat": -17.3876742,
        "lng": -66.1647182
    }
}, {
    "name": "Mollemolle, Cochabamba",
    "coords": {
        "lat": -17.4533668,
        "lng": -66.1529869
    }
}, {
    "name": "Banco Ganadero, Calle San Martin, Cochabamba",
    "coords": {
        "lat": -17.4014351,
        "lng": -66.1533031
    }
}, {
    "name": "Tigo, Avenida José Ballivian, Cochabamba",
    "coords": {
        "lat": -17.386965,
        "lng": -66.155925
    }
}, {
    "name": "Todos Santos 1101, Cochabamba",
    "coords": {
        "lat": -17.4194381,
        "lng": -66.163044
    }
}, {
    "name": "COLEGIO MARQUINA, Quillacollo",
    "coords": {
        "lat": -17.3425641,
        "lng": -66.2918049
    }
}, {
    "name": "HOTEL ANGOSTURA, Tarata, Cochabamba",
    "coords": {
        "lat": -17.5309141,
        "lng": -66.08726899999999
    }
}, {
    "name": "German School Federico Froebel, Cochabamba",
    "coords": {
        "lat": -17.3615226,
        "lng": -66.146782
    }
}, {
    "name": "Centro De Salud Tolata, Tolata",
    "coords": {
        "lat": -17.531543,
        "lng": -65.9619338
    }
}, {
    "name": "Aquaspa, Antofagasta, Quillacollo",
    "coords": {
        "lat": -17.3828307,
        "lng": -66.27768859999999
    }
}, {
    "name": "Paprika, Cochabamba",
    "coords": {
        "lat": -17.385269,
        "lng": -66.154412
    }
}, {
    "name": "Sauna Mar Y Sol Cochabamba Bolivia, Cochabamba",
    "coords": {
        "lat": -17.3792356,
        "lng": -66.1850577
    }
}, {
    "name": "Ende Corporación, Cochabamba",
    "coords": {
        "lat": -17.3924788,
        "lng": -66.1644328
    }
}, {
    "name": "Farmacia Barrientos, Avenida República de Suecia, Cochabamba",
    "coords": {
        "lat": -17.4191438,
        "lng": -66.14879359999999
    }
}, {
    "name": "YPFB Gualberto Villarroel refinery refining, Avenida Petrolera carretera antigua a, Santa Vera Cruz, Cochabamba",
    "coords": {
        "lat": -17.4541517,
        "lng": -66.1221928
    }
}, {
    "name": "Unidad Educativa Guillermo Urquidi, Avenida Beneméritos Del Chaco, Cochabamba",
    "coords": {
        "lat": -17.3950876,
        "lng": -66.1679127
    }
}, {
    "name": "La Casa Del Gordo, Adela Zamudio, Cochabamba",
    "coords": {
        "lat": -17.3690517,
        "lng": -66.1641999
    }
}, {
    "name": "Miraflores Restaurante, Tarija, Cochabamba",
    "coords": {
        "lat": -17.3763531,
        "lng": -66.1608123
    }
}, {
    "name": "Posta Hospital Esperanza, Vinto",
    "coords": {
        "lat": -17.3957144,
        "lng": -66.3153119
    }
}, {
    "name": "Comercial Brisas del Sur Multi Tiendas, Cochabamba",
    "coords": {
        "lat": -17.420166,
        "lng": -66.158459
    }
}, {
    "name": "Plazuela Corazonistas / Guzman Quiton, Avenida Heroínas, Cochabamba",
    "coords": {
        "lat": -17.393189,
        "lng": -66.16151119999999
    }
}, {
    "name": "Caja De Salud De Caminos, Cochabamba",
    "coords": {
        "lat": -17.3808548,
        "lng": -66.1679711
    }
}, {
    "name": "Esteban Arce",
    "coords": {
        "lat": -17.7689015,
        "lng": -65.998774
    }
}, {
    "name": "Plaza de Granos, Quillacollo",
    "coords": {
        "lat": -17.3989093,
        "lng": -66.28404019999999
    }
}, {
    "name": "Restaurant Tiquipaya, Calle Cochabamba, Tiquipaya",
    "coords": {
        "lat": -17.3386122,
        "lng": -66.2213271
    }
}, {
    "name": "Parada De Transporte TOTORA, Cochabamba",
    "coords": {
        "lat": -17.410583,
        "lng": -66.150622
    }
}, {
    "name": "Capilla La Maica, Cochabamba",
    "coords": {
        "lat": -17.4253648,
        "lng": -66.190772
    }
}, {
    "name": "Sarcobamba, Avenida Thunupa, Cochabamba",
    "coords": {
        "lat": -17.3789555,
        "lng": -66.1884688
    }
}, {
    "name": "SACHAWASI CHURRASQUERIA, Cochabamba",
    "coords": {
        "lat": -17.3713937,
        "lng": -66.17461949999999
    }
}, {
    "name": "Arte Urquidi Café, Colombia, Cochabamba",
    "coords": {
        "lat": -17.3913254,
        "lng": -66.1574401
    }
}, {
    "name": "ENDE Valle Hermoso, Tarija, Cochabamba",
    "coords": {
        "lat": -17.3752476,
        "lng": -66.160816
    }
}, {
    "name": "Caja de Salud CORDES Quillacollo, Carmela Serruto, Cochabamba",
    "coords": {
        "lat": -17.393539,
        "lng": -66.280847
    }
}, {
    "name": "Centro De Salud Kantuta, Avenida Capitán Víctor Ustáriz, Cochabamba",
    "coords": {
        "lat": -17.3970402,
        "lng": -66.1939939
    }
}, {
    "name": "ES El Manantial, Cochabamba",
    "coords": {
        "lat": -17.4126889,
        "lng": -66.1552031
    }
}, {
    "name": "hospital German Urquidi Emergencias, Cochabamba",
    "coords": {
        "lat": -17.3869056,
        "lng": -66.1491125
    }
}, {
    "name": "Customs Cochabamba Airport, Luis Uriona, Cochabamba",
    "coords": {
        "lat": -17.4106439,
        "lng": -66.1723548
    }
}, {
    "name": "Caja Nacional De Salud, Avenida Ayacucho, Cochabamba",
    "coords": {
        "lat": -17.3939566,
        "lng": -66.1584536
    }
}, {
    "name": "Terminal De Buses, Avenida Ayacucho, Cochabamba",
    "coords": {
        "lat": -17.4026167,
        "lng": -66.1579002
    }
}, {
    "name": "Pachamita 120, Cochabamba",
    "coords": {
        "lat": -17.3472373,
        "lng": -66.1670686
    }
}, {
    "name": "Pizzería PROVOLONE, Avenida Capitán Víctor Ustáriz, Cochabamba",
    "coords": {
        "lat": -17.3962116,
        "lng": -66.1780686
    }
}, {
    "name": "Vounteer Bolivia Spanish School, Ecuador, Cochabamba",
    "coords": {
        "lat": -17.3911155,
        "lng": -66.1632985
    }
}, {
    "name": "Autoventa BELEN, Cochabamba",
    "coords": {
        "lat": -17.4057661,
        "lng": -66.17832369999999
    }
}, {
    "name": "Colegio Maryknoll, Avenida Juan de La Rosa, Cochabamba",
    "coords": {
        "lat": -17.3772623,
        "lng": -66.1677263
    }
}, {
    "name": "Plaza de Papas, Quillacollo",
    "coords": {
        "lat": -17.3999052,
        "lng": -66.2830175
    }
}, {
    "name": "Pension Padilla, Cochabamba",
    "coords": {
        "lat": -17.3918962,
        "lng": -66.1943824
    }
}, {
    "name": "Laguna Eventos, Quillacollo",
    "coords": {
        "lat": -17.3628893,
        "lng": -66.2108683
    }
}, {
    "name": "El Paso Almacen, Quillacollo",
    "coords": {
        "lat": -17.3483678,
        "lng": -66.257454
    }
}, {
    "name": "Edificio Portal de América, Avenida América, Cochabamba",
    "coords": {
        "lat": -17.3725722,
        "lng": -66.1588817
    }
}, {
    "name": "Las Islas, Av. Circunvalacion, Cochabamba",
    "coords": {
        "lat": -17.3670812,
        "lng": -66.1573277
    }
}, {
    "name": "Punta Cana, Tiquipaya",
    "coords": {
        "lat": -17.3515728,
        "lng": -66.2033296
    }
}, {
    "name": "Blueberry, Cochabamba",
    "coords": {
        "lat": -17.377206,
        "lng": -66.15359959999999
    }
}, {
    "name": "Avenida Circunvalacion 2909, Cochabamba",
    "coords": {
        "lat": -17.3725086,
        "lng": -66.1368439
    }
}, {
    "name": "CENTREX S.R.L., M.Melgarejo, Cochabamba",
    "coords": {
        "lat": -17.3751404,
        "lng": -66.1440539
    }
}, {
    "name": "Colegio Italo Boliviano, Avenida Manco Kapac, Cochabamba",
    "coords": {
        "lat": -17.4039178,
        "lng": -66.1672505
    }
}, {
    "name": "elfec SACABA, Independencia, Sacaba",
    "coords": {
        "lat": -17.4043216,
        "lng": -66.0376221
    }
}, {
    "name": "Los Andes Banca PyME BMSC - Agencia San Martín, 25 de Mayo, Cochabamba",
    "coords": {
        "lat": -17.400606,
        "lng": -66.154291
    }
}, {
    "name": "Cementerio de Pucara Grande",
    "coords": {
        "lat": -17.4641173,
        "lng": -66.1649564
    }
}, {
    "name": "Wistupiku El Gallo, Cochabamba",
    "coords": {
        "lat": -17.4065701,
        "lng": -66.1555011
    }
}, {
    "name": "Camara De Comercio, Avenida Santa Cruz, Cochabamba",
    "coords": {
        "lat": -17.370101,
        "lng": -66.1564071
    }
}, {
    "name": "Escuela de Natacion Santorini, Ecuador, Cochabamba",
    "coords": {
        "lat": -17.3910973,
        "lng": -66.1656412
    }
}, {
    "name": "Radio Movil La Octava Amancayas",
    "coords": {
        "lat": -17.3867088,
        "lng": -66.1042975
    }
}, {
    "name": "Parada De Taxis A Cliza, Avenida Barrientos, Cochabamba",
    "coords": {
        "lat": -17.4063054,
        "lng": -66.1533611
    }
}, {
    "name": "Casita De Marcos, Rio Secure, Cochabamba",
    "coords": {
        "lat": -17.4324964,
        "lng": -66.1540727
    }
}, {
    "name": "Mercado Campesino, Baltazar Alquiza, Cochabamba",
    "coords": {
        "lat": -17.4329026,
        "lng": -66.1249813
    }
}, {
    "name": "CIDRE, Avenida Capitán Víctor Ustáriz, Cochabamba",
    "coords": {
        "lat": -17.396233,
        "lng": -66.1807907
    }
}, {
    "name": "Metalurgica y Fundicion \"AYLLON\", Cochabamba",
    "coords": {
        "lat": -17.4481584,
        "lng": -66.128272
    }
}, {
    "name": "La Casona Restaurante, Quillacollo",
    "coords": {
        "lat": -17.389925,
        "lng": -66.2789203
    }
}, {
    "name": "Avenida Melchor Urquidi 1112, Cochabamba",
    "coords": {
        "lat": -17.3782259,
        "lng": -66.1495963
    }
}, {
    "name": "Villa Taquina, Cochabamba",
    "coords": {
        "lat": -17.3343281,
        "lng": -66.1933258
    }
}, {
    "name": "Bicentenario, Avenida Centenario, Cochabamba",
    "coords": {
        "lat": -17.3493006,
        "lng": -66.18558709999999
    }
}, {
    "name": "Avenida Melchor Pérez de Olguín 1614, Cochabamba",
    "coords": {
        "lat": -17.3761728,
        "lng": -66.1757721
    }
}, {
    "name": "Gerencia Regional Cochabamba - Aduana Nacional, Avenida Capitán Víctor Ustáriz, Colcapirhua Municipality",
    "coords": {
        "lat": -17.3958302,
        "lng": -66.2255843
    }
}, {
    "name": "PIO X, Junin, Sacaba",
    "coords": {
        "lat": -17.4034162,
        "lng": -66.04056179999999
    }
}, {
    "name": "Juan Capriles 358, Cochabamba",
    "coords": {
        "lat": -17.3718981,
        "lng": -66.15784649999999
    }
}, {
    "name": "Concordia - Cementerio Jardín, 16 de Julio, Colcapirhua Municipality",
    "coords": {
        "lat": -17.3811834,
        "lng": -66.2216552
    }
}, {
    "name": "Hotel Toloma, Pedro Borda, Cochabamba",
    "coords": {
        "lat": -17.3840224,
        "lng": -66.1512485
    }
}, {
    "name": "Banco Económico, Nataniel Aguirre, Cochabamba",
    "coords": {
        "lat": -17.3961726,
        "lng": -66.1570253
    }
}, {
    "name": "Iglesia Pentecostal Rey De Reyes, Holanda, Cochabamba",
    "coords": {
        "lat": -17.4485976,
        "lng": -66.12311919999999
    }
}, {
    "name": "Bnb cajero automático, Quillacollo",
    "coords": {
        "lat": -17.3977118,
        "lng": -66.28033789999999
    }
}, {
    "name": "Cementerio General, Ave Bartolome, Cochabamba",
    "coords": {
        "lat": -17.4095645,
        "lng": -66.1604887
    }
}, {
    "name": "Universidad Privada Boliviana, Avenida Juan Pablo II, Colcapirhua Municipality",
    "coords": {
        "lat": -17.3988937,
        "lng": -66.21849569999999
    }
}, {
    "name": "Parada Chapare, Avenida República, Cochabamba",
    "coords": {
        "lat": -17.4000201,
        "lng": -66.14845629999999
    }
}, {
    "name": "Restaurante \"El Bateon\", Cochabamba",
    "coords": {
        "lat": -17.3733866,
        "lng": -66.1239034
    }
}, {
    "name": "El Portal, Potosi, Cochabamba",
    "coords": {
        "lat": -17.3728249,
        "lng": -66.1536607
    }
}, {
    "name": "Cochabamba",
    "coords": {
        "lat": -17.4139766,
        "lng": -66.1653224
    }
}, {
    "name": "Plaza Felix Del Granado, Ecuador, Cochabamba",
    "coords": {
        "lat": -17.3905828,
        "lng": -66.1578763
    }
}, {
    "name": "EL MESON DEL CANTOR, Cochabamba",
    "coords": {
        "lat": -17.365476,
        "lng": -66.188347
    }
}, {
    "name": "Recinto Ferial de Alalay, Cochabamba",
    "coords": {
        "lat": -17.4182091,
        "lng": -66.1301905
    }
}, {
    "name": "Moto Taxi 3000 Molle Molle, Cochabamba",
    "coords": {
        "lat": -17.4567964,
        "lng": -66.1585885
    }
}, {
    "name": "Forza gym, N.Ortiz Pacheco, Cochabamba",
    "coords": {
        "lat": -17.363337,
        "lng": -66.1707988
    }
}, {
    "name": "YAMAHA COCHABAMBA, Cochabamba",
    "coords": {
        "lat": -17.3825173,
        "lng": -66.1504274
    }
}, {
    "name": "Universidad de Aquino Bolivia, Ruta Nacional 4",
    "coords": {
        "lat": -17.3908528,
        "lng": -66.068472
    }
}, {
    "name": "Saunas Ecologicas SRL., acera sud, Colcapirhua Municipality",
    "coords": {
        "lat": -17.3915105,
        "lng": -66.2287375
    }
}, {
    "name": "Salud familiar, Los Olivos, Cochabamba",
    "coords": {
        "lat": -17.3679238,
        "lng": -66.142416
    }
}, {
    "name": "Parada Micro H, Avenida Chapare",
    "coords": {
        "lat": -17.3928945,
        "lng": -66.0951923
    }
}, {
    "name": "Patinódromo Municipal G.A.M.C, Cochabamba",
    "coords": {
        "lat": -17.3849116,
        "lng": -66.20757689999999
    }
}, {
    "name": "Stadium De Sipe Sipe, Sipe Sipe",
    "coords": {
        "lat": -17.4574408,
        "lng": -66.35640599999999
    }
}, {
    "name": "Laboratorio Universo, Cochabamba",
    "coords": {
        "lat": -17.381597,
        "lng": -66.15315
    }
}, {
    "name": "D.F. Gym, Atahuallpa, Cochabamba",
    "coords": {
        "lat": -17.3579395,
        "lng": -66.1592137
    }
}, {
    "name": "Biblioteca Simón I. Patiño, Avenida América, Cochabamba",
    "coords": {
        "lat": -17.3742405,
        "lng": -66.1535869
    }
}, {
    "name": "Ecojet, Cochabamba",
    "coords": {
        "lat": -17.3844908,
        "lng": -66.1536974
    }
}, {
    "name": "Aldeas Infantiles SOS, Cochabamba",
    "coords": {
        "lat": -17.3508329,
        "lng": -66.1933458
    }
}, {
    "name": "Mercado LA PAMPA, Cochabamba",
    "coords": {
        "lat": -17.4034159,
        "lng": -66.1521635
    }
}, {
    "name": "casa valle hermoso, Cochabamba",
    "coords": {
        "lat": -17.4509382,
        "lng": -66.1287723
    }
}, {
    "name": "La Salle, Mayor Rocha, Cochabamba",
    "coords": {
        "lat": -17.3889199,
        "lng": -66.1612323
    }
}, {
    "name": "UNIVALLE Campus AV. AMERICA, Cochabamba",
    "coords": {
        "lat": -17.3723837,
        "lng": -66.16127829999999
    }
}, {
    "name": "Segip Colcapirhua, Pantaleón Dalence, Colcapirhua Municipality",
    "coords": {
        "lat": -17.3879979,
        "lng": -66.2178304
    }
}, {
    "name": "COLEGIO ALBERT EINSTEIN, Parque Excombatientes, Cochabamba",
    "coords": {
        "lat": -17.384756,
        "lng": -66.1753106
    }
}, {
    "name": "Ciudad De Refugio, Ecuador, Cochabamba",
    "coords": {
        "lat": -17.3890444,
        "lng": -66.1519922
    }
}, {
    "name": "UNITEPC Campus Colonial, Pasaje Fidelia Sanchez, Cochabamba",
    "coords": {
        "lat": -17.3926586,
        "lng": -66.156106
    }
}, {
    "name": "Centro de Salud Pacata, Cochabamba",
    "coords": {
        "lat": -17.3735844,
        "lng": -66.1242443
    }
}, {
    "name": "Plaza Principal 6 de Agosto, Sacaba, Cochabamba",
    "coords": {
        "lat": -17.4039279,
        "lng": -66.04012689999999
    }
}, {
    "name": "American International Travel, Colombia, Cochabamba",
    "coords": {
        "lat": -17.3908754,
        "lng": -66.1562472
    }
}, {
    "name": "BancoSol, Calle Esteban Arze, Cochabamba",
    "coords": {
        "lat": -17.3988041,
        "lng": -66.1556339
    }
}, {
    "name": "Universidad Mayor de San Simón, Jordan, Cochabamba",
    "coords": {
        "lat": -17.3940024,
        "lng": -66.14745289999999
    }
}, {
    "name": "Banco Ganadero, Avenida América, Cochabamba",
    "coords": {
        "lat": -17.3723833,
        "lng": -66.1624886
    }
}, {
    "name": "Avenida Papa Paulo 1187, Cochabamba",
    "coords": {
        "lat": -17.3836346,
        "lng": -66.14770399999999
    }
}, {
    "name": "Tunari",
    "coords": {
        "lat": -17.2861724,
        "lng": -66.39335539999999
    }
}, {
    "name": "Rotonda del Avión, entre av killman, Avenida De La Fuerza Aerea, Cochabamba",
    "coords": {
        "lat": -17.4109356,
        "lng": -66.16467829999999
    }
}, {
    "name": "SERECI Of.N°3 (Servicio de Regostro Civil), Cochabamba",
    "coords": {
        "lat": -17.3941848,
        "lng": -66.1549899
    }
}, {
    "name": "Colegio Topater, Viloma Grande",
    "coords": {
        "lat": -17.4123327,
        "lng": -66.3754229
    }
}, {
    "name": "Capilla De Pandoja, Quillacollo",
    "coords": {
        "lat": -17.3639194,
        "lng": -66.2688641
    }
}, {
    "name": "Iglesia Adventista del Séptimo Día - Cochabamba Norte, Cochabamba",
    "coords": {
        "lat": -17.3598656,
        "lng": -66.17202019999999
    }
}, {
    "name": "SAN ANTONIO AG.BARRIENTOS, Avenida Barrientos, Cochabamba",
    "coords": {
        "lat": -17.4124661,
        "lng": -66.1534533
    }
}, {
    "name": "El ARCO, Cochabamba",
    "coords": {
        "lat": -17.4214951,
        "lng": -66.15320919999999
    }
}, {
    "name": "Fitness Cala Cala, Cochabamba",
    "coords": {
        "lat": -17.3685794,
        "lng": -66.1644259
    }
},